,lat,lon,objectid,treeid,height,spread,diameter,notes,scientific,common,state_id,site_address,date_height,date_spread,circumf,date_circumference,year_designated,date_desig,ownership,neighborhood,neighborhood_cd,plaque_adjustment_date,plaque_notes
1,45.51672923,-122.6840138,1,1,85,107,48,This tree was planted in front of the home of Martin and Rosetta Burrell in 1870 and is thus known as the 'Burrell Elm'.,Ulmus americana,American elm,1S1E04AA  6200,1111 SW 10th AVE,2018/08/10 00:00:00+00,2018/08/10 00:00:00+00,12.8,2018/08/10 00:00:00+00,1973,1973/01/01 00:00:00+00,Private,DOWNTOWN,17,2018/08/10 00:00:00+00,
2,45.51716693,-122.6825746,2,2,63,95,54,This tree was planted beside the Sylvester Farrell house in 1880.,Platanus x acerifolia,London planetree,1S1E04AA  2100,NW/C SW PARK & SW MAIN ST,2018/08/10 00:00:00+00,2018/08/10 00:00:00+00,14.3,2018/08/10 00:00:00+00,1975,1975/01/01 00:00:00+00,Right Of Way,DOWNTOWN,17,2018/08/10 00:00:00+00,New plaque 2018
3,45.53442499,-122.6506587,3,3,74,61,60,"This tree is at the corner of NE 15th Ave and NE Weidler St, in an open patio area. It was planted near the George Nicolai home in the 1890s.",Liriodendron tulipifera,Tulip tree,1N1E26DC  13500,1403 NE WEIDLER ST,2018/09/05 00:00:00+00,2018/09/05 00:00:00+00,15.7,2018/09/05 00:00:00+00,1993,1993/01/11 00:00:00+00,"Private, Side Yard, Corner Lot",LLOYD DISTRICT,37,2018/09/05 00:00:00+00,
4,45.5073902,-122.631848,4,4,45,59,59,This tree is known as the Picnic Oak and is on the west side of the lot between SE Lincoln St and SE Grant St.,Quercus garryana,Oregon white oak,1S1E01CD  1600,2137 SE 32nd PL,2018/08/24 00:00:00+00,2018/08/24 00:00:00+00,15.3,2018/08/24 00:00:00+00,1993,1993/01/11 00:00:00+00,"Private, Side Yard",RICHMOND,54,2018/08/24 00:00:00+00,
5,45.51798031,-122.6945953,5,5,102,58,39,"This tree is located in a built out planter at the intersection and is believed to have been planted sometime in the late 19th century by Henry Miller, one of Portland's first florists.",Pinus nigra,Austrian pine,1S1E04BA 6800,COR JEFFERSON & SW 20TH,2019/09/10 19:44:00+00,2019/09/10 19:44:09+00,10.6,2019/09/10 19:44:14+00,1993,1993/01/11 00:00:00+00,Right Of Way (Trimet),GOOSE HOLLOW,23,2019/09/10 21:08:51+00,"Replaced nails with new hardware (screws, washers and springs)"
6,45.51782196,-122.6947724,6,6,85,79,59,This tree is at the corner of SW Howards Way and SW 20th Ave.,Cedrus libani ssp. libani,Cedar of Lebanon,1S1E04BA9 70000,2024 SW HOWARDS WAY,,,15.4,,1993,1993/01/11 00:00:00+00,"Private, Side Yard",GOOSE HOLLOW,23,,
7,45.53896908,-122.5589969,7,7,85,71,88,This tree is at the end of the street.,Fagus sylvatica,European beech,1N2E28DA  700,10115 NE THOMPSON ST,2018/08/10 00:00:00+00,2018/08/10 00:00:00+00,23.1,2018/08/10 00:00:00+00,1994,1994/01/26 00:00:00+00,"Right Of Way, Unimproved",PARKROSE HEIGHTS,48,2018/08/10 00:00:00+00,
8,45.57698179,-122.7181737,8,8,94,111,66,This tree is on the east side of the lot between N Stafford St and N Syracuse St.,Quercus garryana,Oregon white oak,1N1E17BB  100,7168 N OLIN AVE,2018/09/19 00:00:00+00,2018/09/19 00:00:00+00,17.2,2018/09/19 00:00:00+00,1994,1994/01/26 00:00:00+00,"Right Of Way, Unimproved",UNIVERSITY PARK,64,2018/09/19 00:00:00+00,New plaque 2018
9,45.5131152,-122.6972742,9,9,100,105,81,"This tree is deep in the front yard, but is still very visible, it was planted in the early 1920s by Dr. A.S. Nichols.",Quercus rubra,Northern red oak,1S1E04BD  12100,1961 SW VISTA AVE,,,21.15,,1994,1994/01/26 00:00:00+00,"Private, Front Yard",SOUTHWEST HILLS,60,,
10,45.53198958,-122.6984673,10,10,80,108,61,"This tree is on the west end of the address block, around the corner on NW Overton.",Quercus garryana,Oregon white oak,1N1E33BB  900,1310-1338 NW 23RD AVE,2018/08/10 00:00:00+00,2018/08/10 00:00:00+00,16.1,2018/08/10 00:00:00+00,1994,1994/01/26 00:00:00+00,"Private, Side Yard",NORTHWEST DISTRICT,45,2018/08/10 00:00:00+00,"Has two plaques, one on public street side and the other towards building"
11,45.51973186,-122.7007055,11,11,80,55,60,south side between SW 23rd Ave and Washington Park,Liriodendron tulipifera,Tulip tree,1N1E33CC  6900,2390 SW MADISON ST,,,15.6,,1994,1994/01/26 00:00:00+00,"Private, Front Yard",GOOSE HOLLOW,23,,
12,45.52646925,-122.6905173,12,14,89,63,59,This tree is in the southeast corner of Couch Park. It is perhaps the largest Cucumber Tree in the city. It was planted around 1900 on the estate of Cicero Horatius Lewis who owned the only house ever to be built on this block (in 1879-80). The house wa*,Magnolia acuminata,Cucumber tree,1N1E33AC  8200,1961 NW GLISAN ST,2019/09/10 16:01:55+00,2019/09/10 16:01:37+00,16.3,2019/09/10 16:01:46+00,1994,1994/03/23 00:00:00+00,Portland Parks & Recreation (Couch Park),NORTHWEST DISTRICT,45,2019/09/10 21:11:31+00,Good condition 
13,45.49213861,-122.6307621,13,15,101,105,61,"This tree is at the end of SE 33rd Pl, where it runs into Kenilworth Park.",Platanus occidentalis,American sycamore,1S1E12CD  11000,HOLGATE & SE 32ND AVE,2018/09/06 00:00:00+00,2018/09/06 00:00:00+00,16.1,2018/09/06 00:00:00+00,1994,1994/03/23 00:00:00+00,"Right Of Way, Unimproved",CRESTON-KENILWORTH,15,2018/09/06 00:00:00+00,
14,45.46587278,-122.6492572,14,16,88,102,69,"This tree is a variety of European Beech known as a Copper Beech, Fagus sylvatica f. purpurea and was planted in 1892",Fagus sylvatica f. purpurea,Copper beech,1S1E23DB  17200,1579 SE NEHALEM ST,2018/08/31 00:00:00+00,2018/08/31 00:00:00+00,18.1,2018/08/31 00:00:00+00,1994,1994/03/23 00:00:00+00,"Private, Front Yard",SELLWOOD-MORELAND,57,2018/08/31 00:00:00+00,
15,45.49319897,-122.6334452,15,17,112,87,61,south side between SE 31st Ave and SE 32nd Ave,Liriodendron tulipifera,Tulip tree,1S1E12CD  6600,3104 SE GLADSTONE ST,2018/09/06 00:00:00+00,2018/09/06 00:00:00+00,16.5,2018/09/06 00:00:00+00,1994,1994/03/23 00:00:00+00,"Private, Front Yard",CRESTON-KENILWORTH,15,2018/09/06 00:00:00+00,
16,45.48423326,-122.6245777,16,18,91,53,36,This tree was planted by Joseph A. Manning in the early 1920s.,Pinus radiata,Monterey pine,1S1E13AD  12700,5330 SE 37TH AVE,2018/09/06 00:00:00+00,2018/09/06 00:00:00+00,9.7,2018/09/06 00:00:00+00,1994,1994/03/23 00:00:00+00,Right of Way,REED,53,2018/09/06 00:00:00+00,
17,45.55852428,-122.6859828,17,19,95,110,84,"This tree is on the north side of the lot, between N Denver Ave and N Concord Ave.",Quercus garryana,Oregon white oak,1N1E21AD  2900,1815 N HUMBOLDT ST,2018/08/10 00:00:00+00,2018/08/10 00:00:00+00,22.1,2018/08/10 00:00:00+00,1994,1994/03/23 00:00:00+00,"Private, Front Yard",OVERLOOK,47,2018/08/10 00:00:00+00,New plaque 2018
18,45.47945864,-122.6272983,18,20,89,93,70,"This tree is on the Reed College Campus, adjacent to the sidewalk, across the street from 3436 SE Woodstock Blvd.",Quercus velutina,Black oak,1S1E13    100,3203 SE WOODSTOCK BLVD,2018/08/10 00:00:00+00,2018/08/10 00:00:00+00,18.44,2018/08/10 00:00:00+00,1994,1994/06/22 00:00:00+00,Private (Reed Campus),REED,53,2018/08/10 00:00:00+00,
19,45.47134818,-122.6535421,19,21,77,93,63,This tree is on the south side of the lot between SW 11th Ave and SW 13th Ave.,Quercus garryana,Oregon white oak,1S1E23BD  1600,1224 SE SELLWOOD BLVD,2018/08/31 00:00:00+00,2018/08/31 00:00:00+00,16.5,2018/08/31 00:00:00+00,1994,1994/06/22 00:00:00+00,"Private, Front Yard",SELLWOOD-MORELAND,57,2018/08/31 00:00:00+00,
20,45.46907328,-122.659165,20,22,64,88,41,"This tree is located in Sellwood Park, adjacent to the entrance gate at Malden & 7th Ave.",Betula nigra,River birch,1S1E23    300,7951 SE 7TH AVE,2019/09/03 16:32:49+00,2019/09/03 16:15:13+00,10.6,2019/09/03 16:08:04+00,1994,1994/06/22 00:00:00+00,Portland Parks & Recreation,SELLWOOD-MORELAND,57,2019/09/03 21:13:06+00,Good condition 
21,45.54324128,-122.6412137,21,24,76,63,46,This tree is one of a pair of Heritage Catalpas at this address.,Catalpa speciosa,Northern catalpa,1N1E26AD  15100,2827 NE 24TH AVE,2019/09/05 20:56:59+00,2016/09/05 20:57:05+00,12.6,2019/09/05 20:57:24+00,1994,1994/10/23 00:00:00+00,Right Of Way,IRVINGTON,31,2019/09/05 21:15:17+00,"Replaced nails with new hardware (screws, washers and springs)"
22,45.54316581,-122.6412064,22,25,85,72,48,This tree is one of a pair of Heritage Catalpas at this address.,Catalpa speciosa,Northern catalpa,1N1E26AD  15100,2827 NE 24TH AVE,2019/09/05 20:56:01+00,2019/09/05 20:56:10+00,13.5,2019/09/05 20:56:16+00,1994,1994/10/23 00:00:00+00,Right Of Way,IRVINGTON,31,2019/09/05 21:16:33+00,"Replaced nails with new hardware (screws, washers and springs)"
23,45.57467033,-122.7254743,23,27,65,96,56,"This tree is on the University of Portland campus; on the south side of Willamette, between N Haven & N Hodge.",Quercus garryana,Oregon white oak,1N1E18A   100,5000 N WILLAMETTE BLVD,2019/09/18 20:25:42+00,2019/09/18 20:25:45+00,14.8,2019/09/18 20:25:56+00,1994,1994/10/23 00:00:00+00,"Private, University of Portl",UNIVERSITY PARK,64,,
24,45.50707771,-122.6406206,24,30,101,84,49,This may be the only Tartan Elm in Portland and can be found along SE Grant St. at this address.,Ulmus minor `Variegata',Tartan elm,1S1E01CC  13800,2120 SE 24TH AVE,2018/09/25 19:13:16+00,2018/09/25 19:15:43+00,13.5,2018/09/25 19:17:53+00,1994,1994/10/23 00:00:00+00,Right Of Way,HOSFORD-ABERNETHY,29,2018/09/25 19:16:03+00,
25,45.4791252,-122.5840862,25,31,73,76,50,This tree is along SE 77th Ave.,Juglans nigra,Black walnut,1S2E17DD  20800,7703 SE MARTINS ST,2018/08/31 00:00:00+00,2018/08/31 00:00:00+00,13.3,2018/08/31 00:00:00+00,1994,1994/10/23 00:00:00+00,Right Of Way (SE 77th),MT. SCOTT-ARLETA,41,2018/08/31 00:00:00+00,
26,45.4631262,-122.6489589,26,32,84,66,35,Property on north side between SE 16th Ave and SE 17th Ave. Tree located on SE 16th Ave,Carya tomentosa,Mockernut hickory,1S1E23DC  7900,1609 SE UMATILLA ST,2018/08/31 00:00:00+00,2018/08/31 00:00:00+00,9.3,2018/08/31 00:00:00+00,1994,1994/10/23 00:00:00+00,Right Of Way,SELLWOOD-MORELAND,57,2018/08/31 00:00:00+00,
27,45.52137127,-122.6325148,27,33,81,55,29,"South tree is in the rear yard of the address, but the top can be seen from the street.",Carya laciniosa,Shellbark hickory,1N1E36CD  17100,143 SE 32ND AVE,2018/08/10 00:00:00+00,2018/08/10 00:00:00+00,7.65,2018/08/10 00:00:00+00,1994,1994/10/23 00:00:00+00,"Private, Rear Yard",KERNS,33,2018/08/10 00:00:00+00,
28,45.52143964,-122.6325133,28,34,75,50,28,"North tree is in the rear yard of the address, but the top can be seen from the street.",Carya laciniosa,Shellbark hickory,1N1E36CD  17100,143 SE 32ND AVE,2018/08/10 00:00:00+00,2018/08/10 00:00:00+00,7.25,2018/08/10 00:00:00+00,1994,1994/10/23 00:00:00+00,"Private, Rear Yard",KERNS,33,2018/08/10 00:00:00+00,
29,45.51902348,-122.6875784,29,35,95,93,53,"This tree is at Lincoln High School, on the corner of SW Salmon and SW 14th Ave.  The tree was planted in the late 19th century on the Jacob Kamm estate, 13 acres bordered by SW Salmon, SW Jefferson, SW 14th and SW 18th. The Kamm house was moved in 1950*",Juglans nigra,Black walnut,1S1E04AB  100,1600 SW SALMON ST,2018/08/10 00:00:00+00,2018/08/10 00:00:00+00,13.9,2018/08/10 00:00:00+00,1994,1994/10/23 00:00:00+00,Portland Public Schools,GOOSE HOLLOW,23,2018/08/10 00:00:00+00,
30,45.52554894,-122.6997484,30,36,80,54,54,This tree was planted in the late 19th century. It was the only elm left standing on the north side of that block on Flanders after the Columbus Day storm of 1962.,Ulmus minor var. vulgaris,English elm,1N1E33CB  3900,2363 NW FLANDERS ST,,,14.1,,1994,1994/10/23 00:00:00+00,Right Of Way,NORTHWEST DISTRICT,45,,
31,45.50260545,-122.6799221,31,37,48,44,40,This tree is adjacent to SW 2nd Ave at the rear of the lot.,Magnolia grandiflora,Southern magnolia,1S1E10BB  6900,212 WI/ SW MEADE ST,2018/08/10 00:00:00+00,2018/08/10 00:00:00+00,9.5,2018/08/10 00:00:00+00,1994,1994/10/23 00:00:00+00,"Private, Rear Yard",SOUTH PORTLAND,59,2018/08/10 00:00:00+00,
32,45.48294349,-122.6213309,32,38,128,107,80,east side between SE Insley St and SE Harold St,Liriodendron tulipifera,Tulip tree,1S1E13AD  16700,5450 SE 40TH AVE,2018/09/06 00:00:00+00,2018/09/06 00:00:00+00,20.9,2018/09/06 00:00:00+00,1995,1995/02/22 00:00:00+00,"Private, Side Yard",WOODSTOCK,66,2018/09/06 00:00:00+00,
33,45.51462389,-122.6505456,33,39,71,65,52,east side between SE Taylor St and SE Salmon St,Catalpa speciosa,Northern catalpa,1S1E02AC  3700,1126 SE 15TH AVE,2018/08/29 00:00:00+00,2018/08/29 00:00:00+00,13.7,2018/08/29 00:00:00+00,1995,1995/02/22 00:00:00+00,Right Of Way,BUCKMAN,12,2018/08/29 00:00:00+00,
34,45.51000729,-122.6439764,34,40,50,86,79,east side between SE Market St and SE Stephens St,Platanus x acerifolia,London planetree,1S1E02DA  8600,1816 SE 21ST AVE,2018/08/10 00:00:00+00,2018/08/10 00:00:00+00,20.68,2018/08/10 00:00:00+00,1995,1995/02/22 00:00:00+00,"Private, Front Yard",HOSFORD-ABERNETHY,29,2018/08/10 00:00:00+00,
35,45.50056356,-122.6298995,35,41,100,47,36,This tree is on the north side between SE 33rd Ave and SE 35th Ave.,Aesculus flava,Yellow buckeye,1S1E12AC  13200,3387 SE TIBBETTS ST,2019/09/03 18:26:18+00,2019/09/03 18:26:29+00,10.9,2019/09/03 18:26:37+00,1995,1995/02/22 00:00:00+00,Right Of Way,RICHMOND,54,2019/09/03 21:18:50+00,"Adjusted with 1/2"" space"
36,45.52914967,-122.705184,36,45,92,98,53,This tree is visible from NW Marcia.,Quercus rubra,Northern red oak,1N1E32AD  3000,2642 NW LOVEJOY ST,2018/08/10 00:00:00+00,2018/08/10 00:00:00+00,14.1,2018/08/10 00:00:00+00,1995,1995/02/22 00:00:00+00,"Private, Rear Yard",HILLSIDE,28,2018/08/10 00:00:00+00,
37,45.52544495,-122.6994645,37,46,80,75,58,"This tree was planted in the late 19th century. It was condemned to be cut down by the Portland City Council in 1963, but a devoted group of tree lovers saved its life.",Ulmus x hollandica,Dutch elm,1N1E33CB  3200 A1,2330 NW FLANDERS ST,,,15.1,,1995,1995/02/22 00:00:00+00,Right Of Way,NORTHWEST DISTRICT,45,,
38,45.50103375,-122.6601818,38,47,32,40,34,This tree is only partially visible from the sidewalk along SE Mcloughlin Blvd.,Ulmus glabra `Camperdownii',Camperdown elm,1S1E11BC  7300,3040 SE MCLOUGHLIN BLVD,2018/08/22 00:00:00+00,2018/08/22 00:00:00+00,8.8,2018/08/22 00:00:00+00,1995,1995/07/05 00:00:00+00,"Private, Side Yard",BROOKLYN,11,2018/08/22 00:00:00+00,
39,45.46942077,-122.6592491,39,48,92,53,33,This tree is just south of the entrance to the park at SE Malden St and SE 7th Ave.,Nyssa sylvatica,Tupelo,1S1E23    300,7951 SE 7TH AVE,2018/08/10 00:00:00+00,2018/08/10 00:00:00+00,8.7,2018/08/10 00:00:00+00,1995,1995/07/05 00:00:00+00,"Portland Parks & Recreation, (Sellwood Park)",SELLWOOD-MORELAND,57,2018/08/10 00:00:00+00,
40,45.50708298,-122.6546441,40,49,61,58,54,east side between SE Grant St and SE Sherman St,Tilia platyphyllos,Bigleaf linden,1S1E02CD  13700,2204 SE 11TH AVE,2018/08/10 00:00:00+00,2018/08/10 00:00:00+00,14.01,2018/08/10 00:00:00+00,1995,1995/07/05 00:00:00+00,Right Of Way,HOSFORD-ABERNETHY,29,2018/08/10 00:00:00+00,New plaque 2018
41,45.46842263,-122.7107434,41,52,62,35,35,"This tree is located at the Multnomah Arts Center, in a planter in the west parking lot, between Capitol Hwy and the lot.",Cryptomeria japonica,Cryptomeria,1S1E20DB  5600,7688 SW CAPITOL HWY,2018/08/10 00:00:00+00,2018/08/10 00:00:00+00,9.2,2018/08/10 00:00:00+00,1995,1995/07/05 00:00:00+00,"Portland Parks & Recreation, (Multnomah Comm. Center)",MULTNOMAH,43,2018/08/10 00:00:00+00,
42,45.51134681,-122.6991081,42,53,50,81,38,This tree is located along SW 21st Ave.,Fraxinus latifolia,Oregon ash,1S1E04CB  1800,2038 SW MYRTLE,,,10,,1995,1995/07/05 00:00:00+00,"City of Portland (Right of Way), SE 21st",SOUTHWEST HILLS,60,,
43,45.51144544,-122.6857905,43,54,84,84,72,"This tree is a variety of European Beech known as a Copper Beech, Fagus sylvatica f. purpurea.  This tree is at the main entrance to PSU's Millar Library and was planted in the 1890s.",Fagus sylvatica f. purpurea,Copper beech,1S1E04DA  6800,1875 SW PARK AVE,2018/08/10 00:00:00+00,2018/08/10 00:00:00+00,18.75,2018/08/10 00:00:00+00,1995,1995/07/05 00:00:00+00,"Public, PSU Campus",DOWNTOWN,17,2018/08/10 00:00:00+00,
44,45.54157879,-122.6494972,44,55,105,56,44,This is the north tree in a pair of Heritage Sweetgums at this location.,Liquidambar styraciflua,American sweetgum,1N1E26AC  17200,2617 NE 16TH AVE,2018/08/22 00:00:00+00,2018/08/22 00:00:00+00,11.6,2018/08/22 00:00:00+00,1995,1995/07/05 00:00:00+00,Right Of Way,IRVINGTON,31,2018/08/22 00:00:00+00,New plaque 2018
45,45.54149959,-122.6495009,45,56,106,54,46,This is the south tree in a pair of Heritage Sweetgums at this location.,Liquidambar styraciflua,American sweetgum,1N1E26AC  17200,2617 NE 16TH AVE,2018/08/22 00:00:00+00,2018/08/22 00:00:00+00,12.2,2018/08/22 00:00:00+00,1995,1995/07/05 00:00:00+00,Right Of Way,IRVINGTON,31,2018/08/22 00:00:00+00,New plaque 2018
46,45.49136011,-122.6540732,46,57,69,32,27,south side between SE 11th Ave and SE 12th Ave,Cunninghamia lanceolata,China fir,1S1E11CD  14100,1104 SE MALL ST,2018/08/22 00:00:00+00,2018/08/22 00:00:00+00,6.9,2018/08/22 00:00:00+00,1995,1995/11/29 00:00:00+00,Right Of Way,BROOKLYN,11,2018/08/22 00:00:00+00,
47,45.50901077,-122.6346029,47,58,63,91,56,east side between SE Stephens St and SE Market St,Juglans nigra,Black walnut,1S1E01CA  10900,1942 SE 30TH AVE,2018/08/29 00:00:00+00,2018/08/29 00:00:00+00,14.7,2018/08/29 00:00:00+00,1995,1995/11/29 00:00:00+00,"Private, Front Yard",RICHMOND,54,2018/08/29 00:00:00+00,
48,45.51058362,-122.6411238,48,61,87,38,43,east side between SE Market St and SE Stephens St,Pinus monticola,Western white pine,1S1E01CB  12500,1726 SE 24TH AVE,2018/09/25 19:43:23+00,2018/09/25 19:44:21+00,11.7,2018/09/25 19:47:42+00,1995,1995/11/29 00:00:00+00,"Private, Front Yard",HOSFORD-ABERNETHY,29,2018/09/25 19:45:45+00,
49,45.51225497,-122.5954796,49,62,126,88,63,"This tree is gigantic and can be found on the southeast corner of the rectangular reservoir, on the west side of Mt. Tabor Park.",Tilia platyphyllos,Bigleaf linden,1S2E05    100,6325 SE DIVISION ST,2018/08/10 00:00:00+00,2018/08/10 00:00:00+00,16.59,2018/08/10 00:00:00+00,1995,1995/11/29 00:00:00+00,"Portland Parks & Recreation, Mt Tabor",MT. TABOR,42,2018/08/10 00:00:00+00,
50,45.50529628,-122.6398283,50,63,92,63,43,"This tree is a variety of European Beech known as a Copper Beech, Fagus sylvatica f. purpurea.  This tree is only partially visible from the street.",Fagus sylvatica f. purpurea,Copper beech,1S1E01CC  17400,2401 SE 26TH AVE,2018/09/25 18:25:58+00,2018/09/25 18:26:01+00,13.6,2018/09/25 18:24:41+00,1995,1995/11/29 00:00:00+00,"Private, Side Yard",HOSFORD-ABERNETHY,29,2018/09/25 18:24:45+00,Needs new plaque
51,45.50528164,-122.6397235,51,64,89,83,55,west side between SE Caruthers St and SE Division St,Castanea sativa,Spanish chestnut,1S1E01CC  17400,2401 SE 26TH AVE,2018/09/25 18:15:23+00,2018/09/25 18:15:32+00,15.8,2018/09/25 18:15:39+00,1995,1995/11/29 00:00:00+00,"Private, Side Yard",HOSFORD-ABERNETHY,29,2018/09/25 18:15:43+00,
52,45.54378399,-122.6553701,52,66,100,81,58,north side between NE 10th Ave and NE 11th Ave,Quercus rubra,Northern red oak,1N1E26BD  4200,1009 NE STANTON ST,,,15.1,,1995,1995/11/29 00:00:00+00,"Private, Side Yard",IRVINGTON,31,,
53,45.52436302,-122.6229099,53,68,47,30,43,"This tree is one of a pair of Heritage Pines at this location, and is found along NE Couch St.",Pinus densiflora,Japanese red pine,1N1E36DA  5600,110 NE 39TH AVE,2019/09/06 23:00:00+00,2019/09/06 23:00:00+00,11.25,2019/09/06 21:22:48+00,1995,1995/11/29 00:00:00+00,Right Of Way,LAURELHURST,35,2019/09/06 21:22:57+00,Good condition 
54,45.55286352,-122.6778813,54,70,58,61,56,west side between N Shaver St and N Mason St,Salix babylonica,Weeping willow,1N1E22CB  2300,4045 N MISSOURI AVE,2018/09/11 00:00:00+00,2018/09/11 00:00:00+00,14.9,2018/09/11 00:00:00+00,1995,1995/11/29 00:00:00+00,"Private, Side Yard",BOISE,8,2018/09/11 00:00:00+00,
55,45.59312894,-122.7490359,55,71,110,95,63,"This tree is on west side of the lot, between N Hudson St and N Smith St.",Quercus garryana,Oregon white oak,1N1W01DC  15700,9107 N RICHMOND AVE,,,16.5,,1995,1995/11/29 00:00:00+00,"Private, Rear Yard",ST. JOHNS,61,,
56,45.52782786,-122.706025,56,73,40,54,25,This tree is a male Ginko.,Ginkgo biloba,Ginkgo,1N1E32AD  8500,662 NW MELINDA AVE,,,6.5,,1995,1995/11/29 00:00:00+00,"Private, Front Yard",HILLSIDE,28,,
57,45.46238444,-122.6271341,57,74,72,61,62,south side between SW 33rd Ave and SW 36th Ave,Castanea sativa,Spanish chestnut,1S1E24DC  5201,3436 SE JOHNSON CREEK BLVD,2018/08/10 00:00:00+00,2018/08/10 00:00:00+00,16.5,2018/08/10 00:00:00+00,1995,1995/11/29 00:00:00+00,Private (Public Easement?),ARDENWALD-JOHNSON CREEK,3,2018/08/10 00:00:00+00,
58,45.48942941,-122.707409,58,75,81,108,65,"This tree is on the east side of the lot, north of SW Sunset Blvd.",Quercus garryana,Oregon white oak,1S1E17AA  6000,4620 SW 29TH PL,2018/09/19 00:00:00+00,2018/09/19 00:00:00+00,18.1,2018/09/19 00:00:00+00,1996,1996/04/03 00:00:00+00,"Private, Front Yard",HILLSDALE,27,2018/09/19 00:00:00+00,
59,45.58234617,-122.7190607,59,77,51,34,30,"This tree is around the corner on this lot, on Girard.",Cornus nuttallii,Pacific dogwood,1N1E08CB  14100,7817 N HAVEN AVE,2018/09/19 00:00:00+00,2018/09/19 00:00:00+00,7.6,2018/09/19 00:00:00+00,1996,1996/04/03 00:00:00+00,City of Portland (Right of Way),PORTSMOUTH,51,2018/09/19 00:00:00+00,
60,45.56592658,-122.6172891,60,78,52,78,46,This tree is not visible from the street.,Juglans regia,English walnut,1N2E18CC  2200,5941 NE 45TH AVE,2018/08/10 00:00:00+00,2018/08/10 00:00:00+00,12.13,2018/08/10 00:00:00+00,1996,1996/04/03 00:00:00+00,"Private, Side Yard",CULLY,16,2018/08/10 00:00:00+00,
61,45.55154327,-122.6403834,61,79,60,95,42,This tree was brought from California on a flat-bed truck in the 1920s and planted by Thomas Autzen at his house.,Quercus chrysolepis,Canyon live oak,1N1E24CC  3700,2425 NE ALAMEDA ST,,,11.1,,1996,1996/04/03 00:00:00+00,"Private, Side Yard",ALAMEDA,1,,
62,45.54208746,-122.6513126,62,80,35,50,20,"This is one of a line 5 Heritage Wingnuts in front of the Church, along NE Knott St. They are numbered starting at NE 14th Ave, #80 being at 14th and #84 being at 15th.",Pterocarya fraxinifolia,Caucasian wingnut,1N1E26AC  6900,2737 NE 15TH AVE,2019/09/05 20:14:56+00,2016/09/05 20:15:07+00,4.7,2019/09/05 20:15:22+00,1996,1996/04/03 00:00:00+00,Right Of Way,IRVINGTON,31,2019/09/05 21:24:46+00,Good condition 
63,45.54209498,-122.651146,63,81,35,48,20,"This is one of a line 5 Heritage Wingnuts in front of the Church, along NE Knott St. They are numbered starting at NE 14th Ave, #80 being at 14th and #84 being at 15th.",Pterocarya fraxinifolia,Caucasian wingnut,1N1E26AC  6900,2737 NE 15TH AVE,2019/09/05 20:14:06+00,2019/09/05 20:14:12+00,5.4,2019/09/05 20:14:18+00,1996,1996/04/03 00:00:00+00,Right Of Way,IRVINGTON,31,2019/09/05 21:25:41+00,"Replaced nails with new hardware (screws, washers and springs)"
64,45.54208919,-122.6509426,64,82,35,52,20,"This is one of a line 5 Heritage Wingnuts in front of the Church, along NE Knott St. They are numbered starting at NE 14th Ave, #80 being at 14th and #84 being at 15th.",Pterocarya fraxinifolia,Caucasian wingnut,1N1E26AC  6900,2737 NE 15TH AVE,2019/09/05 19:43:07+00,2019/09/05 19:43:12+00,5.7,2019/09/05 19:43:17+00,1996,1996/04/03 00:00:00+00,Right Of Way,IRVINGTON,31,2019/09/05 21:26:40+00,"Replaced nails with new hardware (screws, washers and springs)"
65,45.54209019,-122.6507576,65,83,35,62,24,"This is one of a line 5 Heritage Wingnuts in front of the Church, along NE Knott St. They are numbered starting at NE 14th Ave, #80 being at 14th and #84 being at 15th.",Pterocarya fraxinifolia,Caucasian wingnut,1N1E26AC  6900,2737 NE 15TH AVE,2019/09/05 19:28:37+00,2019/09/05 19:28:41+00,6.9,2019/09/05 19:28:46+00,1996,1996/04/03 00:00:00+00,Right Of Way,IRVINGTON,31,2019/09/05 21:27:46+00,"Replaced nails with new hardware ( screws, washers and springs)"
66,45.54208144,-122.6502336,66,84,35,74,24,"This is one of a line 5 Heritage Wingnuts in front of the Church, along NE Knott St. They are numbered starting at NE 14th Ave, #80 being at 14th and #84 being at 15th.",Pterocarya fraxinifolia,Caucasian wingnut,1N1E26AC  6900,2737 NE 15TH AVE,2019/09/05 19:09:10+00,2019/09/05 19:09:17+00,7.6,2019/09/05 19:09:26+00,1996,1996/04/03 00:00:00+00,Right Of Way,IRVINGTON,31,2019/09/05 21:28:48+00,Good condition 
67,45.54208898,-122.6500519,67,85,55,69,25,"This is one of a line 4 Heritage Wingnuts across the street from the Church, along NE Knott St. They are numbered starting at NE 14th Ave, #85 being at 14th and #88 being at 15th.",Pterocarya fraxinifolia,Caucasian wingnut,1N1E26AC  19000,1408 NE KNOTT ST,2019/09/06 18:24:27+00,2019/09/06 18:24:32+00,7.6,2019/09/06 18:24:46+00,1996,1996/04/03 00:00:00+00,Right Of Way,IRVINGTON,31,2019/09/11 21:30:01+00,Good condition 
68,45.54208201,-122.6497778,68,86,50,60,23,"This is one of a line 4 Heritage Wingnuts across the street from the Church, along NE Knott St. They are numbered starting at NE 14th Ave, #85 being at 14th and #88 being at 15th.",Pterocarya fraxinifolia,Caucasian wingnut,1N1E26AC  19000,1408 NE KNOTT ST,2019/09/06 18:25:36+00,2019/09/06 18:25:54+00,6.7,2019/09/06 18:26:00+00,1996,1996/04/03 00:00:00+00,Right Of Way,IRVINGTON,31,2019/09/06 21:30:40+00,Good condition 
69,45.54208722,-122.6496099,69,87,50,54,20,"This is one of a line 4 Heritage Wingnuts across the street from the Church, along NE Knott St. They are numbered starting at NE 14th Ave, #85 being at 14th and #88 being at 15th.",Pterocarya fraxinifolia,Caucasian wingnut,1N1E26AC  19000,1408 NE KNOTT ST,2019/09/06 18:26:27+00,2019/09/06 18:26:33+00,5.6,2019/09/06 18:26:45+00,1996,1996/04/03 00:00:00+00,Right Of Way,IRVINGTON,31,2019/09/06 21:31:18+00,Good condition 
70,45.54207912,-122.6492301,70,88,41,49,20,"This is one of a line 4 Heritage Wingnuts across the street from the Church, along NE Knott St. They are numbered starting at NE 14th Ave, #85 being at 14th and #88 being at 15th.",Pterocarya fraxinifolia,Caucasian wingnut,1N1E26AC  19000,1408 NE KNOTT ST,2019/09/06 18:27:37+00,2019/09/06 18:27:44+00,5.6,2019/09/06 18:27:52+00,1996,1996/04/03 00:00:00+00,Right Of Way,IRVINGTON,31,2019/09/06 21:31:55+00,Good condition 
71,45.5375968,-122.6458672,71,89,90,99,49,This tree was planted as a seedling in 1904.,Quercus prinus,Chestnut oak,1N1E26DA  15800,1927 NE TILLAMOOK ST,,,12.82,,1996,1996/04/03 00:00:00+00,"Private, Front Yard",IRVINGTON,31,,
72,45.50593347,-122.6400171,72,91,111,82,56,This tree is only partially visible from the street.,Quercus coccinea,Scarlet oak,1S1E01CC  16000,2510 SE SHERMAN ST,2018/09/25 18:43:58+00,2018/09/25 18:47:00+00,15.5,2018/09/25 19:01:00+00,1996,1996/04/03 00:00:00+00,"Private, Rear Yard",HOSFORD-ABERNETHY,29,2018/09/25 19:01:02+00,
73,45.50964468,-122.652641,73,97,16,20,15,This tree is on the corner of SE Larch Ave and SE Mulberry Ave.,Rhododendron ponticum,Ponticum rhododendron,1S1E02CA  7800,1905 SE LARCH AVE,2018/08/10 00:00:00+00,2018/08/10 00:00:00+00,3.9,2018/08/10 00:00:00+00,1996,1996/04/03 00:00:00+00,"Private, Front Yard",HOSFORD-ABERNETHY,29,2018/08/10 00:00:00+00,
74,45.52047022,-122.6954902,74,98,55,52,24,,Aesculus glabra,Ohio buckeye,1N1E33CD  5300,2160 SW MAIN ST,2019/09/10 19:46:27+00,2019/09/10 19:46:33+00,6.5,2019/09/10 19:46:39+00,1996,1996/04/03 00:00:00+00,Right Of Way,GOOSE HOLLOW,23,2019/09/10 21:34:32+00,Good condition 
75,45.46865099,-122.6555705,75,100,94,69,61,This is the west tree in a pair at this address.  The pair is on north side between SE 9th Ave and SE 11th Ave,Aesculus hippocastanum,Common horsechestnut,1S1E23BD  15300,1013 SE LAMBERT ST,2018/08/31 00:00:00+00,2018/08/31 00:00:00+00,15.9,2018/08/31 00:00:00+00,1996,1996/07/05 00:00:00+00,Right Of Way,SELLWOOD-MORELAND,57,2018/08/31 00:00:00+00,
76,45.46864789,-122.6556567,76,101,96,71,55,This is the east tree in a pair at this address.  The pair is on north side between SE 9th Ave and SE 11th Ave.,Aesculus hippocastanum,Common horsechestnut,1S1E23BD  15300,1013 SE LAMBERT ST,2018/08/31 00:00:00+00,2018/08/31 00:00:00+00,14.4,2018/08/31 00:00:00+00,1996,1996/07/05 00:00:00+00,Right Of Way,SELLWOOD-MORELAND,57,2018/08/31 00:00:00+00,
77,45.49012915,-122.739402,77,102,71,96,71,east side south of SW Hamilton St,Ulmus X hollandica 'Vegeta',Dutch elm,1S1E18BB  200,4534 SW 60TH PL,2018/08/10 00:00:00+00,2018/08/10 00:00:00+00,17.3,2018/08/10 00:00:00+00,1996,1996/07/05 00:00:00+00,"Private, Front Yard",BRIDLEMILE,10,2018/08/10 00:00:00+00,
78,45.5327013,-122.6411568,78,103,110,67,58,"This is the south tree in a pair of Heritage Tulip Trees at this location, they are on 24th Ave.",Liriodendron tulipifera,Tulip tree,1N1E36BB  6900,2404 NE CLACKAMAS ST,2018/09/05 00:00:00+00,2018/09/05 00:00:00+00,15.4,2018/09/05 00:00:00+00,1996,1996/07/05 00:00:00+00,Right Of Way,SULLIVAN'S GULCH,62,2018/09/05 00:00:00+00,
79,45.53259317,-122.6411549,79,104,105,74,48,"This is the north tree in a pair of Heritage Tulip Trees at this location, they are on 24th Ave.",Liriodendron tulipifera,Tulip tree,1N1E36BB  6900,2404 NE CLACKAMAS ST,2018/09/05 00:00:00+00,2018/09/05 00:00:00+00,12.7,2018/09/05 00:00:00+00,1996,1996/07/05 00:00:00+00,Right Of Way,SULLIVAN'S GULCH,62,2018/09/05 00:00:00+00,
80,45.53148359,-122.6399279,80,105,55,37,42,"This tree is on the north side of the street, between NE 24th Ave and NE 26th Ave. Western tree of the pair.",Acer campestre,Hedge maple,1N1E36BB  11400,2517 NE MULTNOMAH ST,2018/09/05 00:00:00+00,2018/09/05 00:00:00+00,10.4,2018/09/05 00:00:00+00,1996,1996/07/05 00:00:00+00,Right Of Way,SULLIVAN'S GULCH,62,2018/09/05 00:00:00+00,
81,45.53148509,-122.6398478,81,106,73,47,42,"This tree is on the north side of the street, between NE 24th Ave and NE 26th Ave. Eastern tree of a pair.",Acer campestre,Hedge maple,1N1E36BB  11400,2517 NE MULTNOMAH ST,2018/09/05 00:00:00+00,2018/09/05 00:00:00+00,11.2,2018/09/05 00:00:00+00,1996,1996/07/05 00:00:00+00,Right Of Way,SULLIVAN'S GULCH,62,2018/09/05 00:00:00+00,
82,45.55170944,-122.6405858,82,107,70,96,52,"This tree is a variety of European Beech known as a Copper Beech, Fagus sylvatica f. purpurea.",Fagus sylvatica f. purpurea,Copper beech,1N1E24CC  3700,2425 NE ALAMEDA ST,,,13.7,,1996,1996/10/23 00:00:00+00,"Private, Front Yard",ALAMEDA,1,,
83,45.54306747,-122.6659345,83,108,81,91,60,This tree is fully visible from N Graham St.,Juglans nigra,Black walnut,1N1E27AD  8200,2830 WI/ N WILLIAMS AVE,2018/08/10 00:00:00+00,2018/08/10 00:00:00+00,15.7,,1996,1996/10/23 00:00:00+00,"Private, Rear Yard",ELIOT,20,,
84,45.51847884,-122.6853908,84,109,43,46,28,"This is the north tree, one of 4 Heritage Hawthornes in front of the First Unitarian Church.",Crataegus x lavalleei,Lavalle hawthorn,1S1E04AA  3400,1011 SW 12th,2018/08/10 00:00:00+00,2018/08/10 00:00:00+00,7.4,2018/08/10 00:00:00+00,1996,1996/10/23 00:00:00+00,Right Of Way,DOWNTOWN,17,2018/08/10 00:00:00+00,
85,45.51842316,-122.6854212,85,110,44,45,22,"This tree is second from the north, one of 4 Heritage Hawthornes in front of the First Unitarian Church.",Crataegus x lavalleei,Lavalle hawthorn,1S1E04AA  3400,1011 SW 12th,2018/08/10 00:00:00+00,2018/08/10 00:00:00+00,5.9,2018/08/10 00:00:00+00,1996,1996/10/23 00:00:00+00,Right Of Way,DOWNTOWN,17,2018/08/10 00:00:00+00,
86,45.51836055,-122.6854513,86,111,36,47,23,"This tree is third from the north, one of 4 Heritage Hawthornes in front of the First Unitarian Church.",Crataegus x lavalleei,Lavalle hawthorn,1S1E04AA  3400,1011 SW 12th,2018/08/10 00:00:00+00,2018/08/10 00:00:00+00,5.9,2018/08/10 00:00:00+00,1996,1996/10/23 00:00:00+00,Right Of Way,DOWNTOWN,17,2018/08/10 00:00:00+00,
87,45.51830294,-122.6854817,87,112,38,44,25,"This tree is the southern most, one of 4 Heritage Hawthornes in front of the First Unitarian Church.",Crataegus x lavalleei,Lavalle hawthorn,1S1E04AA  3400,1011 SW 12th,2018/08/10 00:00:00+00,2018/08/10 00:00:00+00,6.6,2018/08/10 00:00:00+00,1996,1996/10/23 00:00:00+00,Right Of Way,DOWNTOWN,17,2018/08/10 00:00:00+00,
88,45.52171063,-122.7046389,88,113,94,85,52,"This tree is opposite this address, on a nib of land between SW Park Pl and Rose Garden Way.",Cedrus deodara,Deodar cedar,1N1E32    100,2403 WI/ SW JEFFERSON ST,2019/09/10 18:54:57+00,2019/09/10 18:55:06+00,14.8,2019/09/10 18:55:12+00,1996,1996/10/23 00:00:00+00,Right Of Way,ARLINGTON HEIGHTS,5,2019/09/10 21:35:31+00,"Replaced nails with new hardware (screws, washers and springs)"
89,45.46697508,-122.6490893,89,115,34,56,51,This the southernmost tree in a pair of Heritage Butternuts along 16th Ave.,Juglans cinerea,Butternut,1S1E23DB  14400,1584 SE LEXINGTON ST,2018/08/31 00:00:00+00,2018/08/31 00:00:00+00,13.2,2018/08/31 00:00:00+00,1996,1996/10/23 00:00:00+00,Right Of Way (SE 16th),SELLWOOD-MORELAND,57,2018/08/31 00:00:00+00,
90,45.46689893,-122.6490864,90,116,33,52,43,This the northernmost tree in a pair of Heritage Butternuts along 16th Ave.,Juglans cinerea,Butternut,1S1E23DB  14400,1584 SE LEXINGTON ST,2018/08/31 00:00:00+00,2018/08/31 00:00:00+00,11.4,2018/08/31 00:00:00+00,1996,1996/10/23 00:00:00+00,Right Of Way (SE 16th),SELLWOOD-MORELAND,57,2018/08/31 00:00:00+00,
91,45.51475892,-122.6349125,91,117,29,25,50,This tree is adjacent to SE 30th.,Cornus nuttallii,Pacific dogwood,1S1E01BD  5300,2944 SE TAYLOR ST,2018/09/05 00:00:00+00,2018/09/05 00:00:00+00,13.2,2018/09/05 00:00:00+00,1996,1996/10/23 00:00:00+00,"Private, Side Yard",SUNNYSIDE,63,2018/09/05 00:00:00+00,
92,45.52835663,-122.7019029,92,119,97,84,56,"This tree has a large witches' broom, which can be caused by a virus, bacteria, or fungus.",Ulmus x hollandica,Dutch elm,1N1E33BC  15900,2455 NW JOHNSON ST,2018/08/10 00:00:00+00,2018/08/10 00:00:00+00,14.8,2018/08/10 00:00:00+00,1996,1996/10/23 00:00:00+00,Right Of Way,NORTHWEST DISTRICT,45,2018/08/10 00:00:00+00,
93,45.48590967,-122.7401491,93,120,95,106,62,This tree is at the entrance to the Robinson Jewish Health Center on SW Boundry St.,Ulmus minor,Smoothleaf elm,1S1E18BC  300,6125 SW BOUNDARY ST,2018/08/10 00:00:00+00,2018/08/10 00:00:00+00,16.2,2018/08/10 00:00:00+00,1996,1996/10/23 00:00:00+00,Private ,HAYHURST,25,2018/08/10 00:00:00+00,
94,45.543005,-122.6576024,94,121,94,64,34,"This is the southern tree of a pair at this location; on the east side of the lot, between NE Stanton St and NE Knott.",Acer pseudoplatanus,Sycamore maple,1N1E26BC  11900,2807 NE 8TH AVE,2019/09/09 19:54:46+00,2019/09/09 19:55:14+00,12.8,2019/09/09 19:55:19+00,1997,1997/01/29 00:00:00+00,Right Of Way,IRVINGTON,31,2019/09/09 21:37:46+00,"Damaged and needs replaced. Grown into tree, no hardware "
95,45.54304993,-122.6576011,95,122,85,54,47,"This is the northern tree of a pair at this location; on the east side of the lot, between NE Stanton St and NE Knott.",Acer pseudoplatanus,Sycamore maple,1N1E26BC  11900,2807 NE 8TH AVE,2019/09/09 19:53:58+00,2019/09/09 19:53:46+00,9.2,2019/09/09 19:53:52+00,1997,1997/01/29 00:00:00+00,Right Of Way,IRVINGTON,31,2019/09/09 21:38:48+00,"Damaged and needs replaced. New hardware installed (screws, washers and springs)"
96,45.51415274,-122.6082782,96,124,130,84,54,east side between SE Salmon St and SE Madison St,Liriodendron tulipifera,Tulip tree,1S2E06AC  10300,1208 SE 53RD AVE,,,14.25,,1997,1997/01/29 00:00:00+00,"Private, Front Yard",MT. TABOR,42,,
97,45.50358531,-122.7076308,97,125,148,62,NA,This tree is at the entrance to the residence driveway.,Sequoiadendron giganteum,Giant sequoia,1S1E08AA  15300,2896 SW PATTON RD,2018/09/12 00:00:00+00,2018/09/12 00:00:00+00,23.2,2018/09/12 00:00:00+00,1997,1997/01/29 00:00:00+00,Right Of Way,SOUTHWEST HILLS,60,2018/09/12 00:00:00+00,
98,45.50897819,-122.6955398,98,126,55,70,41,"This tree is a variety of European Beech known as a Weeping Beech, Fagus sylvatica f. pendula.  The tree is fully visible from the Elm St side of the lot.",Fagus sylvatica f. pendula,Weeping beech,1S1E04CA  11400,2417 SW 16TH AVE,,,10.6,,1997,1997/01/29 00:00:00+00,"Private, Side Yard",SOUTHWEST HILLS,60,,
99,45.51963517,-122.6947507,99,128,103,82,52,This tree is not visible from the street.,Cedrus libani ssp. atlantica,Atlas cedar,1N1E33CD  7900,2033 SW MADISON ST,,,13.5,,1997,1997/01/29 00:00:00+00,"Private, Rear Yard",GOOSE HOLLOW,23,,
100,45.46301723,-122.6890954,100,129,85,45,37,This tree has poor visibility from the street.,Platanus orientalis,Oriental planetree,1S1E21DC  9500,1032 SW TAYLORS FERRY RD,2018/09/19 00:00:00+00,2018/09/19 00:00:00+00,9.6,2016/03/01 00:00:00+00,1997,1997/01/29 00:00:00+00,"Private, Rear Yard",MARSHALL PARK,39,,
101,45.49062625,-122.7289838,101,130,125,67,67,This tree is at the intersection of Shattuck and Hamilton.,Pinus ponderosa,Ponderosa pine,1S1E18AB  100,4504 SW SHATTUCK RD,2018/08/10 00:00:00+00,2018/08/10 00:00:00+00,17.6,2018/08/10 00:00:00+00,1997,1997/05/07 00:00:00+00,"Private, Front Yard",BRIDLEMILE,10,2018/08/10 00:00:00+00,
102,45.47867202,-122.6346971,102,132,70,76,50,"This tree is just south of the intersection of SE 28th & Woodstock Blvd, inside a fence on Eastmoreland Golf Course.",Cladrastis kentukea,Yellowwood,1S1E13    200,2425 SE BYBEE BLVD,2019/09/03 17:23:13+00,2019/09/03 17:23:22+00,14,2019/09/03 17:09:41+00,1997,1997/05/07 00:00:00+00,Right Of Way,EASTMORELAND,19,2019/09/03 21:40:37+00,Good condition 
103,45.51305616,-122.6907492,103,133,48,44,29,This tree is visible from SW 14th Ave.,Magnolia grandiflora,Southern magnolia,1S1E04AC  6200,1410 SW HARRISON ST,,,7.6,,1997,1997/05/07 00:00:00+00,"Private, Side Yard",SOUTHWEST HILLS,60,,
104,45.52908333,-122.72335,104,134,243,51,70,This tree is the largest Douglas-fir in Portland and can be found 100 yards from the stone house on the Lower Macleay spur trail along Balch Creek.,Pseudotsuga menziesii,Douglas-fir,1N1E32AC  3800,NW CORNELL RD,2019/09/11 17:50:28+00,2019/09/11 17:50:21+00,18.3,2019/09/11 17:50:25+00,1997,1997/05/07 00:00:00+00,Portland Parks & Recreation (Upper Macleay Park),FOREST PARK,21,2019/09/11 21:41:39+00,Good condition 
105,45.46235629,-122.6488794,105,135,69,39,30,This is the east tree in a pair of Heritage Basswoods at this address.,Tilia americana,Basswood,1S1E23DC  6200,8332 SE 16TH AVE,2018/08/31 00:00:00+00,2018/08/31 00:00:00+00,7.8,2018/08/31 00:00:00+00,1997,1997/05/07 00:00:00+00,"Private, Front Yard",SELLWOOD-MORELAND,57,2018/08/31 00:00:00+00,
106,45.46228481,-122.6488767,106,136,77,37,30,This is the north tree in a pair of Heritage Basswoods at this address.,Tilia americana,Basswood,1S1E23DC  6200,8332 SE 16TH AVE,2018/08/31 00:00:00+00,2018/08/31 00:00:00+00,8.1,2018/08/31 00:00:00+00,1997,1997/05/07 00:00:00+00,"Private, Front Yard",SELLWOOD-MORELAND,57,2018/08/31 00:00:00+00,
107,45.52078068,-122.6984154,107,137,36,37,23,west side between W Burnside St and SW Main St,magnolia x soulangeana,Saucer magnolia,1N1E33CC  5400,1041 SW VISTA AVE,,,6,,1997,1997/05/07 00:00:00+00,"Private, Front Yard",GOOSE HOLLOW,23,,
108,45.48753473,-122.7066333,108,139,114,33,44,west side between SW Dosch Rd and SW Campbell Ct,Pinus ponderosa,Ponderosa pine,1S1E17AA  7600,4825 SW DOSCH PARK LN,2016/03/01 00:00:00+00,2016/03/01 00:00:00+00,11.4,2016/03/01 00:00:00+00,1997,1997/07/30 00:00:00+00,"Private, Front Yard",HILLSDALE,27,,
109,45.48755361,-122.706692,109,140,130,28,47,This tree is behind the house at this address and is not very visible.,Pinus ponderosa,Ponderosa pine,1S1E17AA  7600,4825 SW DOSCH PARK LN,2016/03/01 00:00:00+00,2016/03/01 00:00:00+00,12.2,2016/03/01 00:00:00+00,1997,1997/07/30 00:00:00+00,"Private, Rear Yard",HILLSDALE,27,,
110,45.48758491,-122.7072382,110,141,97,84,63,"This tree is on west side of the lot, between SW Dosch Rd and SW Campbell Ct.",Quercus garryana,Oregon white oak,1S1E17AA  7600,4825 SW DOSCH PARK LN,2016/03/01 00:00:00+00,2016/03/01 00:00:00+00,16.5,2016/03/01 00:00:00+00,1997,1997/07/30 00:00:00+00,"Private, Rear Yard",HILLSDALE,27,,
111,45.48742333,-122.7066268,111,144,104,48,31,This tree is on east side of house.,Pinus strobus,Eastern white pine,1S1E17AA  7600,4825 SW DOSCH PARK LN,2016/03/01 00:00:00+00,2016/03/01 00:00:00+00,8.2,2016/03/01 00:00:00+00,1997,1997/07/30 00:00:00+00,"Private, Side Yard",HILLSDALE,27,,
112,45.48740892,-122.7065245,112,145,106,63,36,This tree has poor visibility from the street.,Thuja plicata,Western redcedar,1S1E17AA  7600,4825 SW DOSCH PARK LN,2016/03/01 00:00:00+00,,9.3,2016/03/01 00:00:00+00,1997,1997/07/30 00:00:00+00,"Private, Rear Yard",HILLSDALE,27,,
113,45.4874305,-122.7071487,113,146,118,27,41,This tree is at the SW corner of the house.,Calocedrus decurrens,Incense cedar,1S1E17AA  7600,4825 SW DOSCH PARK LN,2016/03/01 00:00:00+00,2016/03/01 00:00:00+00,10.7,2016/03/01 00:00:00+00,1997,1997/07/30 00:00:00+00,"Private, Front Yard",HILLSDALE,27,,
114,45.48776216,-122.7070905,114,147,112,48,46,This tree is at the south corner of the house.,Picea sitchensis,Sitka spruce,1S1E17AA  7800,4711 SW CAMPBELL CT,2016/03/01 00:00:00+00,2016/03/01 00:00:00+00,12,2016/03/01 00:00:00+00,1997,1997/07/30 00:00:00+00,"Private, Side Yard",HILLSDALE,27,,
115,45.50832856,-122.7057106,115,148,133,62,52,"This tree is found at the southeast corner of this lot, near Buena Vista Dr.",Pseudotsuga menziesii,Douglas-fir,1S1E05DD  4200,2525 SW MONTGOMERY DR,2018/09/12 00:00:00+00,2018/09/12 00:00:00+00,14.2,2018/09/12 00:00:00+00,1997,1997/07/30 00:00:00+00,Right of Way,SOUTHWEST HILLS,60,2018/09/12 00:00:00+00,
116,45.53254852,-122.7131769,116,149,61,69,34,This tree was planted ca. 1910 and is visible from NW 30th Ave.,Styphnolobium japonicum syn. Sophora japonica,Japanese pagoda tree,1N1E32BA  300,3075 NW CORNELL RD,2018/08/10 00:00:00+00,2018/08/10 00:00:00+00,9.1,2018/08/10 00:00:00+00,1997,1997/07/30 00:00:00+00,"Private, Side Yard",NORTHWEST DISTRICT,45,2018/08/10 00:00:00+00,
117,45.49092153,-122.6282718,117,150,87,92,68,on rear corner between SE 35th Ave and SE 35th Pl between SE Holgate Blvd and SE Cora St,Juglans nigra,Black walnut,1S1E12DC  11400,4404 SE 35TH AVE,2018/09/13 00:00:00+00,2018/09/13 00:00:00+00,17.9,,1997,1997/07/30 00:00:00+00,"Private, Rear Yard of 4 property",CRESTON-KENILWORTH,15,,
118,45.46561751,-122.6135938,118,151,92,92,48,south side between SE 48th Ave and SE 49th Ave,Juglans nigra,Black walnut,1S2E19CA  16700,4818 SE TENINO DR,2018/08/10 00:00:00+00,2018/08/10 00:00:00+00,12.45,2018/08/10 00:00:00+00,1997,1997/07/30 00:00:00+00,"Private, Front Yard",BRENTWOOD-DARLINGTON,9,2018/08/10 00:00:00+00,
119,45.51110876,-122.5986373,119,152,139,56,98,"This tree is on the east side of the rectangular reservoir, on the west side of Mt. Tabor Park.",Sequoiadendron giganteum,Giant sequoia,1S2E05    100,6325 SE DIVISION ST,2018/08/10 00:00:00+00,2018/08/10 00:00:00+00,25.68,2018/08/10 00:00:00+00,1997,1997/07/30 00:00:00+00,"Portland Parks & Recreation, Mt Tabor",MT. TABOR,42,2018/08/10 00:00:00+00,
120,45.52509083,-122.6162413,120,153,47,37,14,This is the south tree of a pair of Heritage Hornbeams at this address.,Ostrya virginiana,American hop-hornbeam,1N2E31CB  2800,221 NE 45TH AVE,2019/09/05 16:31:27+00,2019/09/05 16:32:02+00,4,2019/09/05 16:32:08+00,1997,1997/07/30 00:00:00+00,Right Of Way,NORTH TABOR,44,2019/09/05 21:42:36+00,Damaged and needs replaced. 
121,45.5251657,-122.6162406,121,154,53,49,20,This is the north tree of a pair of Heritage Hornbeams at this address.,Ostrya virginiana,American hop-hornbeam,1N2E31CB  2800,221 NE 45TH AVE,2019/09/05 16:32:37+00,2019/09/05 16:32:56+00,5.5,2019/09/05 16:33:01+00,1997,1997/07/30 00:00:00+00,Right Of Way,NORTH TABOR,44,2019/09/05 21:43:36+00,Good condition 
122,45.54226853,-122.6475044,122,155,80,84,80,"This tree is a variety of European Beech known as a Copper Beech, Fagus sylvatica f. purpurea and was planted about 1916 at the John Linden Bowman home.",Fagus sylvatica f. purpurea,Copper beech,1N1E26AC  11400,1719 NE KNOTT ST,,,20.88,,1997,1997/07/30 00:00:00+00,"Private, Front Yard",IRVINGTON,31,,
123,45.51472571,-122.6047695,123,156,110,100,70,south side opposite SE 57th Ave,Quercus rubra,Northern red oak,1S2E06AD  3000,5700 SE TAYLOR ST,,,18.42,,1997,1997/07/30 00:00:00+00,"Private, Front Yard",MT. TABOR,42,,
124,45.52181107,-122.700585,124,158,95,52,84,This tree is not very visible from the street.,Sequoiadendron giganteum,Giant sequoia,1N1E33CC6 40004,"2393 SW PARK PL, UN 101",,,22.1,,1997,1997/10/30 00:00:00+00,"Private, Rear Yard",GOOSE HOLLOW,23,,
125,45.52001274,-122.69807,125,159,48,46,44,east side between SW Park Pl and SW King Ct,Cercidiphyllum japonicum,Katsura,1N1E33CC  5600,1132 SW VISTA AVE,,,11.6,,1997,1997/10/30 00:00:00+00,"Private, Front Yard",GOOSE HOLLOW,23,,
126,45.52066011,-122.6239777,126,160,72,59,45,This tree is just north of the Park entrance at SE 39th and SE Oak St.,Cercidiphyllum japonicum,Katsura,1N1E36D   100,SE 39th & Oak,2019/09/05 17:02:27+00,2019/09/05 17:02:34+00,11.6,2019/09/05 17:02:47+00,1997,1997/10/30 00:00:00+00,Portland Parks & Recreation (Laurelhurst Park),LAURELHURST,35,2019/09/05 21:44:57+00,"Adjusted with 1/2"" space"
127,45.56325284,-122.6812607,127,162,52,48,51,This tree is at the corner of N Maryland Ave and N Church St.,Catalpa bignonioides,Southern catalpa,1N1E15CC  16600,5533 N MARYLAND AVE,2018/08/10 00:00:00+00,2018/08/10 00:00:00+00,13.43,2018/08/10 00:00:00+00,1997,1997/10/30 00:00:00+00,Right Of Way,OVERLOOK,47,2018/08/10 00:00:00+00,
128,45.53880039,-122.6499919,128,163,80,99,39,south side between NE 15th Ave and NE 16th Ave,Betula pendula,European white birch,1N1E26DB  15800,1526 NE THOMPSON ST,,,10.18,,1997,1997/10/30 00:00:00+00,"Private, Side Yard",IRVINGTON,31,,
129,45.54352336,-122.6474656,129,164,82,85,59,south side between NE 17th Ave and NE 18th Ave,Platanus x acerifolia,London planetree,1N1E26AC  12000,1728 NE STANTON ST,,,15.44,,1997,1997/10/30 00:00:00+00,"Private, Front Yard",IRVINGTON,31,,
130,45.51226921,-122.6066154,130,165,175,60,89,This tree can be found along SE 55th Ave at this address.,Sequoiadendron giganteum,Giant sequoia,1S2E06AC  16300,5511 SE HAWTHORNE BLVD,,,23.25,,1997,1997/10/30 00:00:00+00,"Private, Side Yard",MT. TABOR,42,,
131,45.49507771,-122.6298788,131,167,70,49,56,This tree is most visible from SE 33rd Pl.,Sequoia sempervirens,Coast redwood,1S1E12DB  3600,3381 SE FRANCIS ST,,,14.6,,1997,1997/10/30 00:00:00+00,"Private, Rear Yard",CRESTON-KENILWORTH,15,,
132,45.5291503,-122.6998957,132,168,28,53,28,"This tree is on the east side of the lot, near sidewalk",Acer palmatum,Japanese maple,1N1E33BC  11200,2367 NW KEARNEY ST,2018/08/10 00:00:00+00,2018/08/10 00:00:00+00,7.25,2018/08/10 00:00:00+00,1998,1998/04/09 00:00:00+00,"Private, Front Yard",NORTHWEST DISTRICT,45,2018/08/10 00:00:00+00,
133,45.47859027,-122.7048256,133,169,76,45,50,This tree is only partially visible from the street.,Thuja plicata,Western redcedar,1S1E17DD  2600,6215 SW 27TH AVE,2018/08/16 00:00:00+00,2018/08/16 00:00:00+00,13.1,2018/08/16 00:00:00+00,1998,1998/04/09 00:00:00+00,"Private, Rear Yard",HILLSDALE,27,2018/08/16 00:00:00+00,
134,45.47187199,-122.6702967,134,171,104,75,56,"This tree is on the south end Willamette Park, adjacent to the child play area, and is known as the Revolution Oak.",Quercus garryana,Oregon white oak,1S1E22A   900,Willamette Park,2018/08/10 00:00:00+00,2018/08/10 00:00:00+00,14.7,2018/08/10 00:00:00+00,1998,1998/04/09 00:00:00+00,"Public, Portland Parks & Rec",SOUTH PORTLAND,59,2018/08/10 00:00:00+00,
135,45.51984807,-122.6955024,135,172,97,74,52,This tree is Ulmus x hollandica 'Hollandica' and is at the corner of SW King Ave and SW Kings Ct.,Ulmus x hollandica,Dutch elm,1N1E33CD  7700,1150 SW KING AVE,,,13.7,,1998,1998/04/09 00:00:00+00,"Private, Front Yard, ROW",GOOSE HOLLOW,23,,
136,45.50214947,-122.6800209,136,173,92,84,49,"This tree is a variety of European Beech known as a Copper Beech, Fagus sylvatica f. purpurea.  This tree is at the corner of SW 2nd Ave and SW Hooker St, at the Carnegie Annex in Lair Hill Park.",Fagus sylvatica f. purpurea,Copper beech,1S1E10BB  8700,2909 SW 2ND AVE,2018/08/10 00:00:00+00,2018/08/10 00:00:00+00,12.84,2018/08/10 00:00:00+00,1998,1998/04/09 00:00:00+00,Portland Parks & Recreation (Lair Hill),SOUTH PORTLAND,59,2018/08/10 00:00:00+00,
137,45.50096475,-122.6799827,137,174,63,54,24,"This tree is in Lair Hill Park, on the east side, opposite Cedarwood School.",Carya ovata,Shagbark hickory,1S1E10BB  8600,3037 SW 2ND AVE,2018/08/10 00:00:00+00,2018/08/10 00:00:00+00,6.34,2018/08/10 00:00:00+00,1998,1998/04/09 00:00:00+00,Portland Parks & Recreation,SOUTH PORTLAND,59,2018/08/10 00:00:00+00,
138,45.49761659,-122.6426181,138,175,98,116,70,"This tree is found on the south side of Powell Park, roughly between SE 23rd and SE 24th Ave.",Quercus rubra,Northern red oak,1S1E11A   100,SE POWELL BLVD,2018/08/22 00:00:00+00,2018/08/22 00:00:00+00,18.3,2018/08/22 00:00:00+00,1998,1998/04/09 00:00:00+00,Portland Parks & Recreation (Powell Park),BROOKLYN,11,2018/08/22 00:00:00+00,
139,45.49869645,-122.6429591,139,176,102,106,70,"This tree is on the north side of Powell Park, roughly between SE 23rd and SE 24th Ave.",Quercus rubra,Northern red oak,1S1E11A   100,SE POWELL BLVD,2018/08/22 00:00:00+00,2018/08/22 00:00:00+00,18.3,2018/08/22 00:00:00+00,1998,1998/04/09 00:00:00+00,Portland Parks & Recreation (Powell Park),BROOKLYN,11,2018/08/22 00:00:00+00,
140,45.57866319,-122.704891,140,177,76,77,45,"in right-of-way, north side between N Washburne Ave and N Wabash Ave",Acer saccharum,Sugar maple,1N1E08DD  6100,3715 N BALDWIN ST,2018/10/16 20:43:28+00,2018/10/16 20:44:53+00,11.8,2018/10/16 20:45:51+00,1998,1998/04/09 00:00:00+00,Right Of Way,KENTON,32,2018/10/16 20:45:55+00,
141,45.56129948,-122.6960866,141,178,41,71,39,"no sidewalks, but in right of way from street center, south side west of N Greeley Ave",Pinus pinea,Italian stone pine,1N1E21BA  8500,2856 N EMERSON CT,2018/08/10 00:00:00+00,2018/08/10 00:00:00+00,10.17,2018/08/10 00:00:00+00,1998,1998/04/09 00:00:00+00,Right Of Way,OVERLOOK,47,2018/08/10 00:00:00+00,
142,45.49566504,-122.6762649,142,179,92,80,62,This tree is in a undeveloped corner lot on the SW corner of SW Lane and SW Corbett; it is known as the Corbett Oak.,Quercus garryana,Oregon white oak,1S1E10CA  9400,Heritage Tree Park,2018/08/10 00:00:00+00,2018/08/10 00:00:00+00,16.35,2018/08/10 00:00:00+00,1998,1998/07/01 00:00:00+00,"Public, Portland Parks & Rec",SOUTH PORTLAND,59,2018/08/10 00:00:00+00,
143,45.48247491,-122.6175166,143,180,76,55,44,This tree is on the west side between SE Harold St and SE Ellis St,Aesculus flava,Yellow buckeye,1S2E18CB  2100,5511 SE 44TH AVE,2018/09/06 00:00:00+00,2018/09/06 00:00:00+00,11.5,2018/09/06 00:00:00+00,1998,1998/07/01 00:00:00+00,Right Of Way,WOODSTOCK,66,2018/09/06 00:00:00+00,
144,45.50548591,-122.6480195,144,184,84,77,63,This tree is adjacent to the intersection of SE Hickory St. and SE Tamarack Ave.,Umbellularia californica,Oregon myrtle,1S1E02DC  11700,2408 SE 16TH AVE,2018/08/10 00:00:00+00,2018/08/10 00:00:00+00,16.48,2018/08/10 00:00:00+00,1998,1998/07/01 00:00:00+00,"Private, Rear Yard, Corner Lot",HOSFORD-ABERNETHY,29,2018/08/10 00:00:00+00,
145,45.51470774,-122.6063566,145,185,85,40,49,"This tree is on the east side of the lot, between SE Taylor St and SE Salmon.",Calocedrus decurrens,Incense cedar,1S2E06AC  12900,1144 SE 55TH AVE,,,12.8,,1998,1998/07/01 00:00:00+00,"Private, Side Yard",MT. TABOR,42,,
146,45.48210771,-122.6176531,146,186,39,58,29,"city right of way, north side between SE 43rd Ave and SE 44th Ave",Carpinus caroliniana,American hornbeam,1S2E18CB  1900,4327 SE ELLIS ST,2018/09/06 00:00:00+00,2018/09/06 00:00:00+00,7.7,2018/09/06 00:00:00+00,1998,1998/07/01 00:00:00+00,Right Of Way,WOODSTOCK,66,2018/09/06 00:00:00+00,
147,45.48029686,-122.6291618,147,187,89,57,41,"Southern of a pair of female Heritage Ginkos, 100 yards from Woodstock Blvd on the Reed campus main driveway.",Ginkgo biloba,Ginkgo,1S1E13    100,3203 SE WOODSTOCK BLVD,2018/09/06 00:00:00+00,2018/09/06 00:00:00+00,10.8,2018/09/06 00:00:00+00,1998,1998/07/01 00:00:00+00,Private (Reed Campus),REED,53,2018/09/06 00:00:00+00,
148,45.48041694,-122.6291594,148,188,81,64,39,"Northern of a pair of female Heritage Ginkos, 100 yards from Woodstock Blvd on the Reed campus main driveway.",Ginkgo biloba,Ginkgo,1S1E13    100,3203 SE WOODSTOCK BLVD,2018/09/06 00:00:00+00,2018/09/06 00:00:00+00,10.2,2018/09/06 00:00:00+00,1998,1998/07/01 00:00:00+00,Private (Reed Campus),REED,53,2018/09/06 00:00:00+00,
149,45.53292442,-122.7104294,149,189,39,21,20,"This is one of a pair of Heritage Umbrella Pines at this address, planted around 1920. South tree",Sciadopitys verticillata,Umbrella pine,1N1E32AB  2400,2870 NW CORNELL RD,2018/08/10 00:00:00+00,2018/08/10 00:00:00+00,5.2,2018/08/10 00:00:00+00,1998,1998/07/01 00:00:00+00,"Private, Front Yard",HILLSIDE,28,2018/08/10 00:00:00+00,
150,45.53295359,-122.710402,150,190,32,25,21,"This is one of a pair of Heritage Umbrella Pines at this address, planted around 1920. North tree",Sciadopitys verticillata,Umbrella pine,1N1E32AB  2400,2870 NW CORNELL RD,2018/08/10 00:00:00+00,2018/08/10 00:00:00+00,5.5,2018/08/10 00:00:00+00,1998,1998/07/01 00:00:00+00,"Private, Front Yard",HILLSIDE,28,2018/08/10 00:00:00+00,
151,45.51975995,-122.6203808,151,192,60,69,49,This tree is best viewed from SE Oak Ct.,Zelkova serrata,Zelkova,1N1E36DD  10300,4066 SE OAK ST,,,12.9,,1998,1998/11/04 00:00:00+00,"Private, Rear Yard",LAURELHURST,35,,
152,45.51320127,-122.6173855,152,193,70,90,74,This tree is only partially visible from the street.,Fagus sylvatica,European beech,1S2E06BC  17300,4343 SE MADISON ST,,,19.4,,1998,1998/11/04 00:00:00+00,"Private, Rear Yard",SUNNYSIDE,63,,
153,45.48386174,-122.6143168,153,194,66,61,23,"Southern tree in Woodstock Park, on the west side, along SE 47th Ave.",Carya illinoinensis,Pecan,1S2E18BD  8700,SE STEELE & 47TH,2018/09/06 00:00:00+00,2018/09/06 00:00:00+00,6.04,2018/09/06 00:00:00+00,1998,1998/11/04 00:00:00+00,Portland Parks & Recreation,WOODSTOCK,66,2018/09/06 00:00:00+00,
154,45.48399858,-122.6143212,154,195,52,63,26,"Northern tree in Woodstock Park, on the west side, along SE 47th Ave.",Carya illinoinensis,Pecan,1S2E18BD  8700,SE STEELE & 47TH,2018/09/06 00:00:00+00,2018/09/06 00:00:00+00,6.7,2018/09/06 00:00:00+00,1998,1998/11/04 00:00:00+00,Portland Parks & Recreation,WOODSTOCK,66,2018/09/06 00:00:00+00,
155,45.47756867,-122.6059892,155,196,23,29,19,This tree is on the north side between SE 52nd Ave and SE 57th Ave.,Aesculus californica,California buckeye,1S2E18DC  7000,5527 SE TOLMAN ST,2018/09/06 00:00:00+00,2018/09/06 00:00:00+00,5,2018/09/06 00:00:00+00,1998,1998/11/04 00:00:00+00,"Private, Front Yard",WOODSTOCK,66,2018/09/06 00:00:00+00,
156,45.47778361,-122.6061705,156,197,35,34,16,This tree is set back from the street and not very visible.,Pinus monophylla,Single-needle pinyon,1S2E18DC  7000,5527 SE TOLMAN ST,2018/09/06 00:00:00+00,2018/09/06 00:00:00+00,4.1,2018/09/06 00:00:00+00,1998,1998/11/04 00:00:00+00,"Private, Front Yard",WOODSTOCK,66,2018/09/06 00:00:00+00,
157,45.58211556,-122.7490651,157,198,106,88,60,This is the easternmost tree in a row of three Heritage White Oaks. It is on the south side between N Polk Ave and N Pierce Ave.,Quercus garryana,Oregon white oak,1N1W12DA  4000,7654 N CRAWFORD ST,2018/08/10 00:00:00+00,2018/08/10 00:00:00+00,15.6,2018/08/10 00:00:00+00,1998,1998/11/04 00:00:00+00,Portland Parks and Recreation,CATHEDRAL PARK,13,2018/08/10 00:00:00+00,
158,45.58215483,-122.7489067,158,199,111,98,55,This is the center tree in a row of three Heritage White Oaks. It is on the south side between N Polk Ave and N Pierce Ave.,Quercus garryana,Oregon white oak,1N1W12DA  4000,7654 N CRAWFORD ST,2018/08/10 00:00:00+00,2018/08/10 00:00:00+00,14.4,2018/08/10 00:00:00+00,1998,1998/11/04 00:00:00+00,Portland Parks & Recreation,CATHEDRAL PARK,13,2018/08/10 00:00:00+00,New plaque 2018
159,45.56625977,-122.6980837,159,201,93,30,52,south side between N Curtis Ave and N Villard Ave,Calocedrus decurrens,Incense cedar,1N1E16CC  600,3022 N AINSWORTH ST,2018/08/10 00:00:00+00,2018/08/10 00:00:00+00,13.5,2018/08/10 00:00:00+00,1998,1998/11/04 00:00:00+00,"Private, Front Yard",OVERLOOK,47,2018/08/10 00:00:00+00,
160,45.56631136,-122.6920003,160,202,49,52,36,This tree is found along N. Ainsworth St.,Pinus engelmannii,Apache pine,1N1E16DC  9300,5936 N DELAWARE AVE,2018/08/10 00:00:00+00,2018/08/10 00:00:00+00,9.34,2018/08/10 00:00:00+00,1998,1998/11/04 00:00:00+00,Right Of Way,OVERLOOK,47,2018/08/10 00:00:00+00,
161,45.55080718,-122.641478,161,203,28,53,50,south side between NE 23rd Ave and NE 24th Ave,Cercis siliquastrum,Judas tree,1N1E23DD  20100,2336 NE RIDGEWOOD DR,2019/09/27 17:25:30+00,2019/09/27 17:25:34+00,13.1,2019/09/27 17:25:44+00,1998,1998/11/04 00:00:00+00,"Private, Front Yard",ALAMEDA,1,2019/09/27 22:17:57+00,Damaged and needs replaced. 
162,45.49371575,-122.6564846,162,204,56,60,47,This tree is a Gravenstein Apple in the upaved part of SE Center St. It is possibly the last remaining tree of an extensive apple orchard planted by Gideon Tibbetts who came to Oregon in 1847 and died in 1887.,Malus x domestica 'Gravenstein',Gravenstein apple,1S1E11CC  200,4017 SE 9TH AVE,2018/08/22 00:00:00+00,2018/08/22 00:00:00+00,12.3,2018/08/22 00:00:00+00,1999,1999/10/21 00:00:00+00,Right Of Way (Center St),BROOKLYN,11,2018/08/22 00:00:00+00,
163,45.50952169,-122.6099928,163,205,57,30,21,Female,Ginkgo biloba,Ginkgo,1S2E06DB  22000,1836 SE 51ST AVE,2019/09/03 19:28:12+00,2019/09/03 19:27:49+00,5.7,2019/09/03 19:28:03+00,1999,1999/10/21 00:00:00+00,Right Of Way,MT. TABOR,42,2019/09/03 21:46:08+00,Damaged and needs replaced. 
164,45.51723511,-122.5975045,164,207,77,54,33,"On April 12, 1973, a four-inch Sophora japonica seedling was given to Elaine Cogan (then the Chair of the Portland Development Commission) by Pat Nixon at the White House in recognition of the outstanding design of Pettygrove Park. According to Mrs Nixo*",Styphnolobium japonicum syn. Sophora japonica,Japanese pagoda tree,1S2E05BB  8300,6436 SE MORRISON ST,2016/03/01 00:00:00+00,2016/03/01 00:00:00+00,8.7,2016/03/01 00:00:00+00,1999,,"Private, Side Yard",MT. TABOR,42,,
165,45.51302698,-122.6024267,165,208,94,54,49,Pair of two Both Strikingly healthy and huge,Fagus sylvatica,European beech,1S2E06AD  4800,5925 SE MADISON ST,2018/08/10 00:00:00+00,2018/08/10 00:00:00+00,12.87,2018/08/10 00:00:00+00,1999,1999/10/21 00:00:00+00,"Private, Front Yard",MT. TABOR,42,2018/08/10 00:00:00+00,
166,45.51303772,-122.6022963,166,209,104,57,53,Pair of two Both Strikingly healthy and huge,Cedrus deodara,Deodar cedar,1S2E06AD  4800,5925 SE MADISON ST,2018/08/10 00:00:00+00,2018/08/10 00:00:00+00,13.4,2018/08/10 00:00:00+00,1999,1999/10/21 00:00:00+00,"Private, Front Yard",MT. TABOR,42,2018/08/10 00:00:00+00,
167,45.52109991,-122.6484742,167,210,115,88,59,Big 13',Ulmus glabra,Wych elm,1N1E35DC  12000,222 SE 17TH AVE,2016/03/01 00:00:00+00,2016/03/01 00:00:00+00,15.45,,1999,1999/10/21 00:00:00+00,Right Of Way,BUCKMAN,12,,
168,45.54091515,-122.6400402,168,212,73,85,49,Big 13',Platanus occidentalis,American sycamore,1N1E25CB  3500,2524 NE 25TH AVE,,,12.9,,1999,1999/10/21 00:00:00+00,Right Of Way,IRVINGTON,31,,
169,45.54756379,-122.6474748,169,213,25,35,35,This tree is perhaps 80 years old.,Prunus pendula,Weeping cherry,1N1E26AB  2400,3403 NE 18TH AVE,,,9.2,,1999,1999/10/21 00:00:00+00,"Private, Rear Yard",IRVINGTON,31,,
170,45.52574336,-122.611271,170,214,107,85,43,,Liquidambar styraciflua,American sweetgum,1N2E31CA  2300,5104 NE FLANDERS ST,2019/09/05 17:50:34+00,2019/09/05 17:50:43+00,11.8,2019/09/05 17:50:49+00,1999,1999/10/21 00:00:00+00,Right Of Way,NORTH TABOR,44,2019/09/05 21:47:45+00,Damaged and needs replaced 
171,45.4819587,-122.6930496,171,216,102,100,65,This is a fabulous strong limbed tree.,Quercus garryana,Oregon white oak,1S1E16CA  500,5739 SW CHELTENHAM DR,,,17.1,,1999,1999/10/21 00:00:00+00,"Private, Rear Yard",HILLSDALE,27,,
172,45.52164729,-122.6705226,172,217,15,27,30,55SW ash and Natio parkway Bill Naito's Favorite Tree First Gift from Sapporo,Prunus x yedoensis,Yoshino cherry,1N1E34DC  1400,65 SW NAITO PKWY,2019/09/11 19:53:59+00,2019/09/11 19:53:56+00,8,2019/09/11 19:54:07+00,1999,1999/10/21 00:00:00+00,Right Of Way,OLD TOWN/CHINATOWN,46,2019/09/11 21:48:42+00,Good condition 
173,45.51797138,-122.6951445,173,218,70,50,37,This tree is in a courtyard adjacent to the street.,Platanus x acerifolia,London planetree,1S1E04BA9 70000,2024 SW HOWARDS WAY,,,9.7,,1999,1999/10/21 00:00:00+00,"Private, Front Yard",GOOSE HOLLOW,23,,
174,45.51534134,-122.6807529,174,219,105,90,52,12' 6',Ulmus x hollandica,Dutch elm,1S1E03BC  800,1225 SW 6TH AVE,2019/09/11 18:43:44+00,2019/09/11 18:43:42+00,14,2019/09/11 18:43:40+00,1999,1999/10/21 00:00:00+00,Right Of Way,DOWNTOWN,17,2019/09/11 21:49:36+00,Good condition 
175,45.51857774,-122.7058344,175,220,84,48,31,"This tree is on Rose Garden Way, next to the southeast corner parking lot. Since this tree is large and planted on city property, it is hypothesized that Ernie Fischer, once curator of Hoyt Arboretum, collected or acquired the seed from Mexico or Englan*",Pinus rudis,Endlicher pine,1S1E05    100,2403 SW JEFFERSON ST,2019/09/10 19:40:52+00,2019/09/10 19:40:58+00,10.4,2019/09/10 19:41:01+00,1999,1999/10/21 00:00:00+00,Portland Parks & Recreation (Washington Park),ARLINGTON HEIGHTS,5,2019/09/10 21:50:46+00,Good condition 
176,45.51091866,-122.6980615,176,221,103,46,84,largest to date  23' 3'',Sequoiadendron giganteum,Giant sequoia,1S1E04CB  2500,2234-2238 SW VISTA AVE,,,22,,1999,1999/10/21 00:00:00+00,"Private, Front Yard (adj to street)",SOUTHWEST HILLS,60,,
177,45.52754153,-122.6945375,177,231,86,64,47,Grove of 3     10'   5'',Ulmus americana,American elm,1N1E33BD  8700,625-635 NW 21ST AVE,2018/09/12 00:00:00+00,2018/09/12 00:00:00+00,10.2,2018/09/12 00:00:00+00,1999,1999/10/21 00:00:00+00,Right Of Way,NORTHWEST DISTRICT,45,2018/09/12 00:00:00+00,
178,45.54356735,-122.5985756,178,233,64,25,23,From Holland Bulb Industry Tall  5' 3''  Suberb,Cryptomeria japonica,Cryptomeria,1N2E29BC  7000,6232 NE STANTON ST,2018/08/16 00:00:00+00,2018/08/16 00:00:00+00,6.1,2018/08/16 00:00:00+00,1999,1999/10/21 00:00:00+00,"Private, Front Yard, Corner Lot",ROSE CITY PARK,55,2018/08/16 00:00:00+00,
179,45.5875147,-122.7107281,179,235,65,82,50,"This tree is against the main building, next to the parking lot at the Charles Jordan Community Center.",Juglans cinerea,Butternut,1N1E08AC  100,9009 N FOSS AVE,2018/10/05 17:22:59+00,2018/10/05 17:24:31+00,13.5,2018/10/08 23:07:59+00,1999,1999/10/21 00:00:00+00,Portland Parks & Recreation (University Park Community Center),PORTSMOUTH,51,2018/10/08 23:08:22+00,
180,45.52517438,-122.6279762,180,236,71,35,34,,Araucaria araucana,Monkey puzzle,1N1E36DB  3500,419 NE HAZELFERN PL,2018/08/10 00:00:00+00,2018/08/10 00:00:00+00,8.95,2018/08/10 00:00:00+00,2001,,"Private, Front Yard",LAURELHURST,35,2018/08/10 00:00:00+00,
181,45.52528516,-122.62697,181,237,74,38,37,,Araucaria araucana,Monkey puzzle,1N1E36DB  2000,415 NE LAURELHURST PL,2018/08/10 00:00:00+00,2018/08/10 00:00:00+00,9.79,2018/08/10 00:00:00+00,2001,,"Private, Front Yard",LAURELHURST,35,2018/08/10 00:00:00+00,
182,45.5511692,-122.6853947,182,238,106,107,51,,Quercus coccinea,Scarlet oak,1N1E21DD  3900,3922 N OVERLOOK BLVD,2018/09/11 00:00:00+00,2018/09/11 00:00:00+00,13.5,2018/09/11 00:00:00+00,2001,,"Private, Front Yard",OVERLOOK,47,2018/09/11 00:00:00+00,
183,45.55331692,-122.6816268,183,239,71,71,53,This tree is on N Mason St.,Pinus sabiniana,Gray pine,1N1E22CB  11600,4074 N MASSACHUSETTS AVE,2018/09/11 00:00:00+00,2018/09/11 00:00:00+00,13.9,2018/09/11 00:00:00+00,2001,,Right of Way,OVERLOOK,47,2018/09/11 00:00:00+00,
184,45.53648971,-122.6299752,184,240,89,98,61,,Ulmus glaevis,European white elm,1N1E25DC  7000,3331 NE HANCOCK ST,2018/08/10 00:00:00+00,2018/08/10 00:00:00+00,16.03,2018/08/10 00:00:00+00,2002,,Right Of Way,GRANT PARK,24,2018/08/10 00:00:00+00,
185,45.51775284,-122.6259754,185,241,31,50,34,,Acer palmatum,Japanese maple,1S1E01AB  3300,3652 SE ALDER ST,,,8.792,,2002,,"Private, Front Yard, Corner",SUNNYSIDE,63,,
186,45.4680331,-122.6568973,186,242,61,84,47,This tree is on SE 9th Ave.,Juglans regia,English walnut,1S1E23CB  2100,907 SE BIDWELL ST,2018/08/31 00:00:00+00,2018/08/31 00:00:00+00,12.4,2018/08/31 00:00:00+00,2003,,Right Of Way,SELLWOOD-MORELAND,57,2018/08/31 00:00:00+00,
187,45.5786274,-122.7083261,187,243,88,74,29,"This tree is located about 100ft from the intersection of N Russet St and N Chautauqua Blvd, inside Columbia Park.",Quercus phellos,Willow oak,1N1E08DC  100,7701 N CHAUTAUQUA BLVD,2018/10/16 20:27:40+00,2018/10/16 20:28:44+00,7.7,2018/10/16 20:29:45+00,2003,,Portland Parks & Recreation (Columbia Park),PORTSMOUTH,51,2018/10/16 20:29:48+00,Needs new plaque
188,45.52179598,-122.7037926,188,244,82,73,31,This tree is southwest of a the brick restroom building visible from the intersection of SW Park Pl and SW Wright.,Quercus phellos,Willow oak,1N1E32    100,240 SW WRIGHT AVE,2019/09/10 18:55:35+00,2019/09/10 18:55:41+00,9,2019/09/10 18:55:45+00,2003,,Portland Parks & Recreation (Washington Park),ARLINGTON HEIGHTS,5,2019/09/10 21:51:37+00,"Damaged and needs replaced. Replaced with new hardware (screws, washers and springs)"
189,45.46555675,-122.7156297,189,245,114,57,47,,Pinus ponderosa,Ponderosa pine,1S1E20CA  6600,8143 SW 37TH AVE,2016/03/01 00:00:00+00,2016/03/01 00:00:00+00,12.4,2016/03/01 00:00:00+00,2003,,"Private, Front Yard",MULTNOMAH,43,,
190,45.50738598,-122.7009473,190,246,55,29,35,This tree is visible from Ravenswood Dr.,Metasequoia glyptostroboides,Dawn redwood,1S1E04CC  2600,2562 SW HILLCREST DR,,,9.2,,2003,,"Private, Rear Yard",SOUTHWEST HILLS,60,,
191,45.56984633,-122.6968691,191,248,51,69,55,,Umbellularia californica,Oregon myrtle,1N1E16CA  7700,2904 N PORTLAND BLVD,2018/08/10 00:00:00+00,2018/08/10 00:00:00+00,14.31,2018/08/10 00:00:00+00,2003,,Right Of Way,ARBOR LODGE,2,2018/08/10 00:00:00+00,
192,45.55641837,-122.6503918,192,249,73,74,54,,Aesculus hippocastanum,Common horsechestnut,1N1E23AC  10900,1465 NE GOING ST,2018/08/10 00:00:00+00,2018/08/10 00:00:00+00,13.5,2016/03/01 00:00:00+00,2003,,Right Of Way,SABIN,56,2018/08/10 00:00:00+00,
193,45.58446021,-122.7061181,193,250,98,78,55,This tree is in the center of a public alley at the rear of this property.,Quercus garryana,Oregon white oak,1N1E08AD  12700,8516 N FOWLER CT,2018/10/05 16:55:20+00,2018/10/05 23:00:00+00,14.5,2018/10/08 22:46:55+00,2003,,Right Of Way,KENTON,32,2018/10/05 16:56:15+00,
194,45.49905707,-122.6544313,194,251,53,42,34,,Taxus baccata,English yew,1S1E11BD  13200,3345 SE MILWAUKIE AVE,2018/09/25 20:30:44+00,2018/09/25 20:22:57+00,9.1,2018/09/25 20:30:05+00,2003,,"Private, Front Yard",BROOKLYN,11,2018/09/25 20:30:08+00,
195,45.57147216,-122.6956674,195,252,77,64,95,This is the tree that was removed from list in 2000 because owner refused nomination (HT #28),Acer macrophyllum,Bigleaf maple,1N1E16BD  10100,6733 N GREELEY AVE,2018/08/10 00:00:00+00,2018/08/10 00:00:00+00,24.6,2018/08/10 00:00:00+00,2003,,Right Of Way,ARBOR LODGE,2,2018/08/10 00:00:00+00,
196,45.54067677,-122.6492521,196,253,75,33,34,,Metasequoia glyptostroboides,Dawn redwood,1N1E26DB  1000,1617 NE BRAZEE ST,,,8.9,,2003,,"Private, Front Yard",IRVINGTON,31,,
197,45.57746601,-122.7031556,197,254,87,20,42,"This tree is partially visible N Lombard St and N Wabash Ave. It was planted from seed in 1948 by Ruth Hansen, a founder of the American Rhododendron Society, the Crystal Springs Rhododendron Garden, and the Oregon Native Plant Society.",Metasequoia glyptostroboides,Dawn redwood,1N1E08DD  9200,3515 N/ N LOMBARD ST,2018/10/16 21:04:54+00,2016/03/01 00:00:00+00,11.1,2016/03/01 00:00:00+00,2003,,"Private, Rear Yard",KENTON,32,,
198,45.52531622,-122.6277847,198,256,79,91,58,,Fraxinus americana,American ash,1N1E36DB  3300,412 NE HAZELFERN,2018/08/10 00:00:00+00,2018/08/10 00:00:00+00,15.29,2018/08/10 00:00:00+00,2003,,Right Of Way,LAURELHURST,35,2018/08/10 00:00:00+00,New plaque 2018
199,45.58634055,-122.7184225,199,257,40,50,37,,Aesculus californica,California buckeye,1N1E08BC  15200,8827 N. HAVEN,2018/10/08 23:31:30+00,2018/10/08 23:31:25+00,10.5,2018/10/08 23:35:06+00,2003,,Right Of Way,PORTSMOUTH,51,2018/10/08 23:35:12+00,
200,45.54122892,-122.6470073,200,258,115,70,54,,Ulmus minor,Smoothleaf elm,1N1E26AC  14300,2546 NE 18TH AVE,2019/09/09 15:31:04+00,2019/09/09 15:31:09+00,14.9,2019/09/09 15:31:16+00,2003,,Right Of Way,IRVINGTON,31,2019/09/09 21:53:15+00,"Adjusted with 1/2"" space "
201,45.55120109,-122.6875327,201,259,77,72,55,This tree is on a vacant lot to the south of this address.,Quercus garryana,Oregon white oak,1N1E21DC  500,south of 3969 N OVERLOOK TERR,2018/09/11 00:00:00+00,2018/09/11 00:00:00+00,14.4,2018/09/11 00:00:00+00,2004,,"Private, Undeveloped Lot",OVERLOOK,47,2018/09/11 00:00:00+00,
202,45.4863,-122.5117333,202,260,166,56,71,This tree is located along the Cedar Grove Trail in Powell Butte Nature Park.,Pseudotsuga menziesii,Douglas-fir,1S2E13    200,POWELL BUTTE NATURE PARK,2018/08/31 00:00:00+00,2018/08/31 00:00:00+00,18.8,2018/08/31 00:00:00+00,2004,,Portland Water Bureau,PLEASANT VALLEY,50,2018/08/31 00:00:00+00,
203,45.53923006,-122.6495111,203,261,96,66,54,,Aesculus hippocastanum 'Baumannii',Common horsechestnut,1N1E26DB  4800,1529 NE THOMPSON,2019/09/09 18:01:18+00,2019/09/09 18:01:07+00,14.3,2019/09/09 18:01:11+00,2004,,Right Of Way,IRVINGTON,31,2019/09/09 21:55:29+00,"Replaced nails with new hardware (screws, washers and springs)"
204,45.5573986,-122.6557529,204,262,112,81,63,,Liriodendron tulipifera,Tulip tree,1N1E23BD  8100,4807 NE 10TH AVE,2018/08/10 00:00:00+00,2018/08/10 00:00:00+00,15.8,2018/08/10 00:00:00+00,2004,,"Private, Front Yard",KING,34,2018/08/10 00:00:00+00,
205,45.43519726,-122.6994743,205,263,118,99,77,,Acer saccharinum,Silver maple,1S1E33CC  903,12456 SW ORCHARD HILL RD,2018/08/16 00:00:00+00,2018/08/16 00:00:00+00,20.03,2018/08/16 00:00:00+00,2004,,"Private, Rear Yard",ARNOLD CREEK,6,2018/08/16 00:00:00+00,
206,45.51569288,-122.6443706,206,264,82,83,41,,Betula nigra,River birch,1S1E02AD  2100,2104/2106 SE YAMHILL,2018/09/05 00:00:00+00,2018/09/05 00:00:00+00,10.7,2018/09/05 00:00:00+00,2004,,Right Of Way,BUCKMAN,12,2018/09/05 00:00:00+00,
207,45.48470751,-122.6034721,207,268,78,81,49,,Quercus garryana,Oregon white oak,1S2E18AD  14000,5813 SE STEELE ST,2018/09/06 00:00:00+00,2018/09/06 00:00:00+00,12.9,2018/09/06 00:00:00+00,2005,,Right Of Way,WOODSTOCK,66,2018/09/06 00:00:00+00,
208,45.53978015,-122.6473931,208,269,76,90,64,This is the south tree in a pair of Heritage Planetrees at this location.,Platanus x acerifolia,London planetree,1N1E26DB  8600,2407 NE 18TH AVE,2019/09/09 16:16:17+00,2019/09/09 16:16:24+00,15,2019/09/09 16:16:34+00,2005,,Right Of Way,IRVINGTON,31,2019/09/09 21:56:37+00,Good condition 
209,45.53986347,-122.647392,209,270,78,84,55,This is the north tree in a pair of Heritage Planetrees at this location.,Platanus x acerifolia,London planetree,1N1E26DB  8600,2407 NE 18TH AVE,2019/09/09 16:17:36+00,2019/09/09 16:17:41+00,15.8,2019/09/09 16:17:48+00,2005,,Right Of Way,IRVINGTON,31,2019/09/09 21:57:10+00,Good condition 
210,45.51300255,-122.6303753,210,271,73,75,38,,Carya illinoinensis,Pecan,1S1E01AC  21800,3329 SE MADISON ST,2018/08/24 00:00:00+00,2018/08/24 00:00:00+00,10.4,2018/08/24 00:00:00+00,2005,,"Private, Side Yard",SUNNYSIDE,63,2018/08/24 00:00:00+00,
211,45.48191989,-122.5512876,211,272,63,71,40,This tree is in an unimproved right of way adjacent to 5569 SE 109th.,Quercus garryana,Oregon white oak,1S2E15CA  2607,5559 SE 109TH AVE,2019/09/03 20:06:31+00,2019/09/03 20:06:58+00,10.8,2019/09/03 20:07:06+00,2005,,Right Of Way,LENTS,36,2018/09/04 00:00:00+00,Good condition 
212,45.54626273,-122.6605583,212,273,62,36,34,,Araucaria araucana,Monkey puzzle,1N1E26BB  7000,446 NE FARGO ST,2018/08/10 00:00:00+00,2018/08/10 00:00:00+00,8.91,2018/08/10 00:00:00+00,2005,,"Private, Front Yard",ELIOT,20,2018/08/10 00:00:00+00,
213,45.56145821,-122.6811958,213,274,111,115,69,This tree is on the east side of Patton Square City Park and is fully visible from N Maryland Ave.,Quercus rubra,Northern red oak,1N1E22BB  8800,5340 N INTERSTATE AVE,2018/08/10 00:00:00+00,2018/08/10 00:00:00+00,18.1,2018/08/10 00:00:00+00,2005,,Portland Parks & Recreation (Patton Square),OVERLOOK,47,2018/08/10 00:00:00+00,
214,45.47130121,-122.6314762,214,275,69,62,46,,Acer platanoides,Norway maple,1S1E24BD  3800,7351 SE 31ST AVE,2018/08/10 00:00:00+00,2018/08/10 00:00:00+00,11.93,2018/08/10 00:00:00+00,2005,,Right Of Way,EASTMORELAND,19,2018/08/10 00:00:00+00,
215,45.57656074,-122.7000067,215,276,128,62,132,This tree is partially visible from the street.,Sequoiadendron giganteum,Giant sequoia,1N1E16BB  2800,7404 N OATMAN AVE,2016/03/01 00:00:00+00,2016/03/01 00:00:00+00,34.5,2016/03/01 00:00:00+00,2005,,"Private, Rear Yard",ARBOR LODGE,2,,
216,45.51969441,-122.6968513,216,277,80,59,53,,Cedrus libani ssp. atlantica,Atlas cedar,1N1E33CD  7100,2190 SW KINGS CT,,,13.8,,2005,,"Private, Rear Yard",GOOSE HOLLOW,23,,
217,45.5134227,-122.6981144,217,278,76,57,30,,Carya laciniosa,Shellbark hickory,1S1E04BC  1500,1942 SW MONTGOMERY DR,,,7.75,,2005,,"Private, Front Yard",SOUTHWEST HILLS,60,,
218,45.48892558,-122.603845,218,302,103,97,71,front yard,Quercus rubra,Northern red oak,1S2E18AA  17200,4706 SE 58TH AVE,2018/09/06 00:00:00+00,2018/09/06 00:00:00+00,18.7,2018/09/06 00:00:00+00,2010,2010/11/10 00:00:00+00,"Private, Front Yard",WOODSTOCK,66,2018/09/06 00:00:00+00,
219,45.53343509,-122.5122236,219,279,148,85,64,"This tree is located along the fitness trail paralelling NE Halsey St, close to the intersection of NE Halsey and NE 146th Ave.",Pseudotsuga menziesii,Douglas-fir,1N2E35A 100,13931 NE GLISAN ST,2018/08/10 00:00:00+00,2018/08/10 00:00:00+00,16.99,2018/08/10 00:00:00+00,2007,2007/07/01 00:00:00+00,Other Public,HAZELWOOD,26,2018/08/10 00:00:00+00,
220,45.51125623,-122.6315163,220,280,70,70,64,,Liriodendron tulipifera,Tulip tree,1S1E01CA 1100,1602 SE 32ND PL,2018/08/24 00:00:00+00,2018/08/24 00:00:00+00,16.7,2018/08/24 00:00:00+00,2007,2007/07/01 00:00:00+00,Right Of Way,RICHMOND,54,2018/08/24 00:00:00+00,
221,45.53503573,-122.7153239,221,281,75,45,27,,Pinus wallichiana,Himalayan pine,1N1E29CD 11900,3310 NW FRANKLIN CT,2018/08/10 00:00:00+00,2018/08/10 00:00:00+00,7.1,2018/08/10 00:00:00+00,2007,2007/07/01 00:00:00+00,"Private, Side Yard, Corner Lot",NORTHWEST DISTRICT,45,2018/08/10 00:00:00+00,
222,45.52794385,-122.7086395,222,282,114,54,50,This tree is to the right of the main entrance to the gymnasium.,Sequoia sempervirens,Coast redwood,1N1E32AC 4400,701 NW CULPEPPER TER,2019/09/10 20:10:43+00,2019/09/10 20:10:49+00,16.6,2019/09/10 20:10:58+00,2007,2007/07/01 00:00:00+00,Portland Parks & Recreation (Hillside Park),HILLSIDE,28,2019/09/10 22:03:12+00,Good condition 
223,45.51115478,-122.7008521,223,283,87,17,21,,Abies concolor,White fir,1S1E04CB 5000,2156 SW LAUREL ST,,,5.5,,2007,2007/07/01 00:00:00+00,"Private, Front Yard",SOUTHWEST HILLS,60,,
224,45.57822655,-122.718962,224,284,70,99,59,"This tree is in a rear yard, but fully visible from N Depauw.",Quercus garryana,Oregon white oak,1N1E08CC  17100,4768 N OBERLIN ST,2018/09/19 00:00:00+00,2018/09/19 00:00:00+00,15.6,2018/09/19 00:00:00+00,2008,,"Private, Rear Yard",UNIVERSITY PARK,64,2018/09/19 00:00:00+00,
225,45.54815293,-122.6360913,225,285,120,60,54,,Pinus ponderosa,Ponderosa pine,1N1E25BB  100,3437 NE 29TH AVE,,,14.05,,2008,,"Private, Front Yard",ALAMEDA,1,,
226,45.54596954,-122.6579868,226,286,75,52,38,"This tree is not visible from the street, the best view is from Irving Park.",Ginkgo biloba,Ginkgo,1N1E26BB  12000,3145 NE 8TH AVE,,,9.95,,2009,2009/08/05 00:00:00+00,"Private, Rear Yard",IRVINGTON,31,,
227,45.50990187,-122.6458137,227,287,23,36,21,,Ulmus glabra `Camperdownii',Camperdown elm,1S1E02DA  20000,1836 SE LOCUST AVE,2018/08/10 00:00:00+00,2018/08/10 00:00:00+00,5.6,2018/08/10 00:00:00+00,2009,2009/08/05 00:00:00+00,"Private, Front Yard",HOSFORD-ABERNETHY,29,2018/08/10 00:00:00+00,
228,45.49912706,-122.620128,228,288,21,30,16,"This tree is one of a pair of Heritage Crape Myrtles at Van Veen Nursery.  It is on a raised bank behind a low stone wall.  They are both Lagerstroemia fauriei, a variety known as Japanese Crape Myrtle.  These are the first two hybrids of their kind and*",Lagerstroemia indica,Crape myrtle,1S2E07BC  11100,4201 SE Franklin St.,2019/09/18 17:34:11+00,2019/09/18 17:33:51+00,3.6,2019/09/18 17:33:07+00,2009,2009/08/05 00:00:00+00,"Private, Front Yard",RICHMOND,54,2019/09/18 22:22:07+00,Damaged and needs replaced. Drill needed to remove plaque 
229,45.49907294,-122.6200046,229,289,22,32,13,"This tree is one of a pair of Heritage Crape Myrtles at Van Veen Nursery.  It is on a raised bank behind a low stone wall.  They are both Lagerstroemia fauriei, a variety known as Japanese Crape Myrtle.  These are the first two hybrids of their kind and*",Lagerstroemia indica,Crape myrtle,1S2E07BC  11100,4201 SE Franklin St.,2019/09/18 17:30:26+00,2019/09/18 17:30:19+00,6.6,2019/09/18 17:30:17+00,2009,2009/08/05 00:00:00+00,"Private, Front Yard",RICHMOND,54,2019/09/18 22:23:17+00,Damaged and needs replaced. Drill recommended to remove
230,45.4877406,-122.7073911,230,290,31,39,30,"This tree is a Yellow Bellflower Apple and is at the dead end of this street.  It is over 160 years old and has great historical significance, being an Oregon State Heritage Tree and recognized by the Home Orchard Society.",Malus x domestica 'Yellow Bellflower',Yellow bellflower apple,,4700-4799 SW Campbell Ct,2019/09/11 15:45:10+00,2019/09/11 15:45:18+00,8.8,2019/09/11 15:45:23+00,2009,2009/08/05 00:00:00+00,Right Of Way,HILLSDALE,27,2019/09/11 22:04:26+00,"No City of Portland plaque, only OR plaque on post. "
231,45.47996763,-122.6357141,231,292,62,45,21,"This tree was planted as a seedling in 1952 and is located within the Crystal Springs Rhododendron Garden (Fee Entry).  It can be found at the south end of the Park, between the Pavillion and the Restrooms.",Davidia involucrata,Dove Tree,1S1E13    200,2425 S.E. Bybee St.,2018/08/10 00:00:00+00,2018/08/10 00:00:00+00,5.4,2018/08/10 00:00:00+00,2009,2009/08/05 00:00:00+00,Public (Crystal Springs - Fee Entry),EASTMORELAND,19,2018/08/10 00:00:00+00,
232,45.51919502,-122.642746,232,293,121,13,42,"This tree is located inside Lone Fir Cemetery, on the north side of the Cemetery; opposite 2231 SE Stark St. This tree is distinctive for its well defined columnar form.",Calocedrus decurrens,Incense cedar,1S1E02    101,SE 20th & Morrison,2018/08/29 00:00:00+00,2018/08/29 00:00:00+00,11.1,2018/08/29 00:00:00+00,2009,2009/08/05 00:00:00+00,Public (Metro),BUCKMAN,12,2018/08/29 00:00:00+00,
233,45.51877538,-122.6448835,233,294,109,61,52,"This tree was the inspiration for the name of the historic Lone Fir Cemetery, it is located in the northwest section of the lot, roughly opposite 437 SE 22nd Ave.",Pseudotsuga menziesii,Douglas-fir,1S1E02    101,SE 20th & Morrison St.,2018/08/29 00:00:00+00,2018/08/29 00:00:00+00,13.7,2018/08/29 00:00:00+00,2009,2009/08/05 00:00:00+00,"Public, Metro",BUCKMAN,12,2018/08/29 00:00:00+00,
234,45.47939187,-122.6299386,234,296,79,37,36,"This tree is opposite 3210 SE Woodstock Blvd, on the Reed College campus.",Chamaecyparis lawsoniana,Port Orford cedar,1S1E13    100,3203 SE WOODSTOCK BLVD,2018/09/06 00:00:00+00,2018/09/06 00:00:00+00,9.3,2018/09/06 00:00:00+00,2009,2009/08/05 00:00:00+00,Private (Reed Campus),REED,53,2018/09/06 00:00:00+00,
235,45.55543992,-122.6570938,235,297,75,51,45,,Castanea sativa,Spanish chestnut,1N1E23CB  100,828 NE PRESCOTT ST,2018/08/10 00:00:00+00,2018/08/10 00:00:00+00,11.7,2018/08/10 00:00:00+00,2009,2009/08/05 00:00:00+00,Right Of Way,KING,34,2018/08/10 00:00:00+00,
236,45.50363061,-122.6294528,236,298,40,67,48,This tree is at the corner of SE 34th Ave and SE Clinton Ave.,Catalpa bignonioides,Southern catalpa,1S1E12AB  7700,3401 SE CLINTON ST,2019/09/16 19:18:48+00,2019/09/16 19:19:03+00,12.6,2019/09/16 19:19:13+00,2010,2010/11/10 00:00:00+00,"Private, Side Yard",RICHMOND,54,2019/09/16 22:24:36+00,"Adjusted with 1/2"" space"
237,45.54505632,-122.6566565,237,299,105,42,39,front yard,Pinus taeda,Loblolly pine,1N1E26BB  14300,3045 NE 9TH AVE,,,10.3,,2010,2010/11/10 00:00:00+00,"Private, Front Yard",IRVINGTON,31,,
238,45.47931657,-122.6241183,238,300,108,97,62,front yard,Cedrus deodara,Deodar cedar,1S1E13DA  10700,3735 SE WOODSTOCK BLVD,2018/09/06 00:00:00+00,2018/09/06 00:00:00+00,16.2,2018/09/06 00:00:00+00,2010,2010/11/10 00:00:00+00,"Private, Front Yard",REED,53,2018/09/06 00:00:00+00,
239,45.51381856,-122.5843966,239,301,131,72,77,This tree is adjacent to the exit for the parking lot at St. Andrews Care Center.,Sequoia sempervirens,Coast redwood,1S2E05AC  1200,7617 SE MAIN ST,2018/08/10 00:00:00+00,2018/08/10 00:00:00+00,20.11,2018/08/10 00:00:00+00,2010,2010/11/10 00:00:00+00,"Private, Front Yard",MONTAVILLA,40,2018/08/10 00:00:00+00,
240,45.54961585,-122.6401551,240,303,60,86,63,This tree is on NE 25th Ave.,Platanus x acerifolia,London planetree,1N1E24CC  10100,2437 NE REGENTS DR,2019/09/06 19:24:57+00,2019/09/06 19:25:12+00,15.4,2019/09/06 19:24:51+00,2010,2010/11/10 00:00:00+00,Right Of Way,ALAMEDA,1,,
241,45.51861479,-122.6349364,241,304,108,93,47,This tree is on the corner of SE Washington St. and SE 30th Ave.,Quercus macrocarpa,Burr oak,1S1E01BA  14700,2921-2955 SE WASHINGTON ST,2018/09/05 00:00:00+00,2018/09/05 00:00:00+00,14.4,2018/09/05 00:00:00+00,2010,2010/11/10 00:00:00+00,Right Of Way,SUNNYSIDE,63,2018/09/05 00:00:00+00,
242,45.54405803,-122.6575935,242,305,88,62,45,,Acer pseudoplatanus,Sycamore maple,1N1E26BC  1600,2923 NE 8TH AVE,2019/09/09 19:17:32+00,2019/09/09 19:17:37+00,12.6,2019/09/09 19:17:41+00,2010,2010/11/10 00:00:00+00,Right Of Way,IRVINGTON,31,2019/09/09 22:07:18+00,"Replaced nails with new hardware (screws, washers and springs)"
243,45.51468837,-122.6037567,243,307,120,43,88,,Sequoiadendron giganteum,Giant sequoia,1S2E06AD  3200,5810 SE Taylor St.,,,23.1,,2011,2011/10/03 00:00:00+00,"Private, Front Yard",MT. TABOR,42,,
244,45.52679655,-122.7282673,244,306,103,42,40,This row of trees is visible to the west of the entrance of the main parking area on NW Cornell.,Metasequoia glyptostroboides,Dawn redwood,1N1E31A   200,Upper Macleay Park,2019/09/11 17:22:18+00,2019/09/11 17:22:09+00,10.7,2019/09/11 17:21:23+00,2011,2011/10/03 00:00:00+00,"Portland Parks & Recreation, (Upper Macleay Park)",FOREST PARK,21,2019/09/11 22:08:33+00,Good condition 
245,45.47451624,-122.7415872,245,309,89,73,55,This tree is fully visible from SW California St.,Cedrus libani ssp. atlantica,Blue Atlas cedar,1S1E19BB  6600,7000 SW 63RD AVE,2018/08/10 00:00:00+00,2018/08/10 00:00:00+00,14.4,2018/08/10 00:00:00+00,2011,2011/10/03 00:00:00+00,"Private, Side Yard",MAPLEWOOD,38,2018/08/10 00:00:00+00,
246,45.56954371,-122.6265116,246,310,50,36,19,,Diospyros virginiana,American persimmon,1N1E13DB  1800,6440 NE 36TH AVE,2018/08/10 00:00:00+00,2018/08/10 00:00:00+00,5.06,2018/08/10 00:00:00+00,2011,2011/10/03 00:00:00+00,Right Of Way,CONCORDIA,14,2018/08/10 00:00:00+00,
247,45.55717037,-122.6254083,247,311,51,42,26,,Larix kaempferi,Japanese larch,1N1E24AD  3800,4626 NE 37TH AVE,2018/08/10 00:00:00+00,2018/08/10 00:00:00+00,6.84,2018/08/10 00:00:00+00,2011,2011/10/03 00:00:00+00,"Private, Front Yard",BEAUMONT-WILSHIRE,7,2018/08/10 00:00:00+00,
248,45.55321093,-122.6691701,248,312,110,115,64,"This tree is a variety of European Beech known as a Copper Beech, Fagus sylvatica f. purpurea.",Fagus sylvatica,European beech,1N1E22DB  16100,4073 N GANTENBEIN AVE,2018/09/11 00:00:00+00,2018/09/11 00:00:00+00,16.8,2018/09/11 00:00:00+00,2013,2013/02/28 00:00:00+00,"Private, Front Yard",BOISE,8,2018/09/11 00:00:00+00,
249,45.51920938,-122.7167559,249,313,103,33,41,This tree is an Oregon Heritage Tree.  It was the first Dawn Redwood to bear cones in the Western hemisphere in 8 million years.,Metasequoia glyptostroboides,Dawn redwood,1S1E05    1000,SW Bary Ln. in Hoyt Arboretum,2019/09/11 16:50:02+00,2019/09/11 16:50:08+00,10.8,2019/09/11 16:51:58+00,2013,2013/02/28 00:00:00+00,Portland Parks & Recreation (Hoyt Arboretum),ARLINGTON HEIGHTS,5,2019/09/11 22:09:21+00,Good condition 
250,45.53387345,-122.7149881,250,314,115,75,47,This tree is visible from the corner of NW 33rd Ave and NW Quimby St.,Quercus palustris,Pin oak,1N1E29CD  15700,1611 NW 32ND AVE,,,12.4,,2013,2013/02/28 00:00:00+00,"Private, Side Yard",NORTHWEST DISTRICT,45,,
251,45.48848187,-122.6257593,251,315,85,65,58,,Aesculus hippocastanum,Common horsechestnut,1S1E13AB  11400,4741 SE 36TH PL,2018/09/06 00:00:00+00,2018/09/06 00:00:00+00,15.3,2018/09/06 00:00:00+00,2014,2014/04/09 00:00:00+00,Right Of Way,REED,53,2018/09/06 00:00:00+00,
252,45.46361386,-122.6924564,252,316,94,80,53,,Fagus sylvatica,European beech,1S1E21CD  5200,1357 SW SPRING GARDEN ST,2018/08/10 00:00:00+00,2018/08/10 00:00:00+00,14.7,2018/08/10 00:00:00+00,2014,2014/04/09 00:00:00+00,"Private, Front Yard",SOUTH BURLINGAME,58,2018/08/10 00:00:00+00,
253,45.56970135,-122.6702213,253,317,94,61,44,,Tilia tomentosa,Silver linden,1N1E15DB  3500,408 N ROSA PARKS WAY,2018/08/10 00:00:00+00,2018/08/10 00:00:00+00,11.5,2018/08/10 00:00:00+00,2014,2014/04/09 00:00:00+00,Right Of Way,PIEDMONT,49,2018/08/10 00:00:00+00,
254,45.51363653,-122.6368968,254,318,83,118,52,,Ulmus americana,American elm,1S1E01BC  1800,2803 SE MAIN ST,2019/09/03 19:00:12+00,2018/08/24 00:00:00+00,13.8,2019/09/03 19:00:23+00,2015,2015/06/17 00:00:00+00,Right Of Way,SUNNYSIDE,63,2018/08/24 00:00:00+00,
255,45.558085,-122.6469067,255,320,24,30,31,,Prunus armeniaca,Apricot,1N1E23AC  2600,4823 NE 18th Ave,2018/08/10 00:00:00+00,2018/08/10 00:00:00+00,8.2,2018/08/10 00:00:00+00,2015,2015/06/17 00:00:00+00,"Private, Front Yard",VERNON,65,2018/08/10 00:00:00+00,
256,45.48698316,-122.6296822,256,321,39,46,39,,Malus x domestica 'Gravenstein',Gravenstein apple,1S1E13AB  16400,5003 SE 34th Ave,2018/09/06 00:00:00+00,2018/09/06 00:00:00+00,10.2,2018/09/06 00:00:00+00,2015,2015/06/17 00:00:00+00,"Private, Front Yard",REED,53,2018/09/06 00:00:00+00,
257,45.58940027,-122.7579038,257,322,70,57,42,,Aesculus hippocastanum,Common horsechestnut,1N1W12BA  10100,8710 N. Willamette Blvd,2019/09/09 20:50:01+00,2019/09/09 20:49:59+00,11.1,2019/09/09 20:50:03+00,2015,2015/06/17 00:00:00+00,Right Of Way,CATHEDRAL PARK,13,2019/09/09 22:10:53+00,Good condition 
258,45.49477032,-122.580216,258,324,51,50,28,publicly owned tree in the right-of-way,Arbutus menziesii,Madrone,1S2E08DA  12300,8018 SE BUSH ST,2019/09/03 20:37:50+00,2019/09/03 20:37:45+00,8,2019/09/03 20:37:38+00,2016,2016/06/01 00:00:00+00,Right Of Way,FOSTER-POWELL,22,2019/09/03 22:12:39+00,Good condition 
259,45.46825048,-122.7240737,259,325,72,41,35,privately owned tree,Metasequoia glyptostroboides,Dawn redwood,1S1E19DA  1000,4600 SW MAPLEWOOD RD,2018/08/10 00:00:00+00,2018/08/10 00:00:00+00,9.2,2018/08/10 00:00:00+00,2016,2016/06/01 00:00:00+00,"Private, Rear Yard",MAPLEWOOD,38,2018/08/10 00:00:00+00,
260,45.46842078,-122.7250448,260,326,76,49,28,privately owned tree,Metasequoia glyptostroboides,Dawn redwood,1S1E19DA  1000,4600 SW MAPLEWOOD RD,2018/08/10 00:00:00+00,2018/08/10 00:00:00+00,7.4,2018/08/10 00:00:00+00,2016,2016/06/01 00:00:00+00,"Private, Rear Yard",MAPLEWOOD,38,2018/08/10 00:00:00+00,
261,45.52462644,-122.6044388,261,327,34,39,18,,Prunus x 'Shirotae',Mt. Fuji flowering cherry,1N2E31DA  11200,221 NE 58TH AVE,,,4.7,,2016,2016/06/01 00:00:00+00,"Private, Front Yard",NORTH TABOR,44,,
262,45.5834853,-122.7377994,262,329,106,57,69,"Peninsula Crossing Trail, at N Carey, between N. Princeton St and N. Syracuse St (right-of-way)",Sequoia sempervirens,Coast redwood,1N1E07CA  4600,N Carey & N Princeton,2019/09/06 21:21:28+00,2019/09/06 21:21:14+00,18.6,2019/09/06 21:21:20+00,2016,2016/06/01 00:00:00+00,Right Of Way,UNIVERSITY PARK,64,2019/09/06 22:14:04+00,Good condition 
263,45.49181497,-122.5944248,263,333,20,30,28,,Ulmus glabra `Camperdownii',Camperdown elm,1S2E08CC  25900,4223 SE 67th Ave,2019/09/24 17:55:13+00,2019/09/24 17:55:20+00,7.6,2019/09/24 17:55:31+00,2017,2017/03/22 00:00:00+00,Private,FOSTER-POWELL,22,2019/09/24 22:26:35+00,Good condition 
264,45.57175942,-122.6861089,264,334,88,41,36,,Pinus ponderosa,Ponderosa pine,1N1E16AD  7700,6804 N Campbell Ave,2019/09/06 20:50:55+00,2019/09/06 20:51:00+00,9.6,2019/09/06 20:51:07+00,2017,2017/03/22 00:00:00+00,Right of Way,ARBOR LODGE,2,2019/09/06 22:16:21+00,Good condition 
265,45.46825833,-122.7243451,265,330,62,31,21,,Taxodium distichum,Baldcypress,1S1E19DA  1000,4600 SW Maplewood Rd,2018/08/10 00:00:00+00,2018/08/10 00:00:00+00,5.5,2018/08/10 00:00:00+00,2017,2017/03/22 00:00:00+00,Private,MAPLEWOOD,38,2018/08/10 00:00:00+00,
266,45.56746053,-122.6236436,266,335,54,63,25,,Carpinus betulus,European hornbeam,1N1E13DA  3600,Fernhill Park,2018/08/10 00:00:00+00,2018/08/10 00:00:00+00,6.65,2018/08/10 00:00:00+00,2017,2017/03/22 00:00:00+00,Portland Parks & Recreation (Fernhill Park),CONCORDIA,14,2018/08/10 00:00:00+00,
267,45.56760226,-122.6237406,267,336,64,60,27,,Carpinus betulus,European hornbeam,1N1E13DA  3600,Fernhill Park,2018/08/10 00:00:00+00,2018/08/10 00:00:00+00,7,2018/08/10 00:00:00+00,2017,2017/03/22 00:00:00+00,Portland Parks & Recreation (Fernhill Park),CONCORDIA,14,2018/08/10 00:00:00+00,
268,45.600465,-122.755746,268,337,167,34,53,Enter park from Reno Ave. Follow path to the first walkway intersection. Tree is located at the intersection on the NW side.,Abies grandis,Grand fir,1N1W01    100,10325 N. Lombard Ave.,2017/05/01 00:00:00+00,2017/05/01 00:00:00+00,13.9,2017/05/01 00:00:00+00,2018,2018/02/28 00:00:00+00,Portland Parks & Recreation,ST. JOHNS,61,,
269,45.552052,-122.686513,269,338,79,99,49,Located in NW corner of pocket park,Platanus x acerifolia,London planetree,1N1E21DA  22600,3967 N. Overlook Blvd.,2017/05/01 00:00:00+00,2017/05/01 00:00:00+00,12.8,2017/05/01 00:00:00+00,2018,2018/02/28 00:00:00+00,Right of Way,OVERLOOK,47,,
270,45.552048,-122.686271,270,339,65,87,59,Located in NE corner of pocket park,Platanus x acerifolia,London planetree,1N1E21DA  22600,3967 N. Overlook Blvd.,2017/05/01 00:00:00+00,2017/05/01 00:00:00+00,15.6,2017/05/01 00:00:00+00,2018,2018/02/28 00:00:00+00,Right of Way,OVERLOOK,47,,
271,45.551837,-122.686293,271,340,69,103,67,Located in South corner of pocket park,Platanus x acerifolia,London planetree,1N1E21DA  22600,3967 N. Overlook Blvd.,2017/05/01 00:00:00+00,2017/05/01 00:00:00+00,17.6,2017/05/01 00:00:00+00,2018,2018/02/28 00:00:00+00,Right of Way,OVERLOOK,47,,
272,45.554056,-122.68087,272,341,80,90,49,Near the NW corner of 1335 N. Mason St.,Platanus x acerifolia,London planetree,1N1E22CB  7100,4284 N. Maryland Ave.,2017/05/01 00:00:00+00,2017/05/01 00:00:00+00,12.8,2017/05/01 00:00:00+00,2018,2018/02/28 00:00:00+00,Right of Way,OVERLOOK,47,,
273,45.555869,-122.667537,273,342,64,89,49,Visible from alley,Juglans regia,English walnut,1N1E22AC  6200,4528 N. Vancouver Ave.,2017/05/01 00:00:00+00,2017/05/01 00:00:00+00,12.7,2017/05/01 00:00:00+00,2018,2018/02/28 00:00:00+00,"Private, back yard",HUMBOLDT,30,,
274,45.561112,-122.665929,274,343,79,108,63,,Quercus rubra,Northern red oak,1N1E22AA  5800,5245 N. Vancouver Ave.,2017/05/01 00:00:00+00,2017/05/01 00:00:00+00,16.5,2017/05/01 00:00:00+00,2018,2018/02/28 00:00:00+00,Right of Way,HUMBOLDT,30,,
275,45.565599,-122.674153,275,344,37,41,24,On N. Simpson St.,Sassafras albidum,Sassafras,1N1E15CD  2700,5901 N. Borthwick Ave.,2017/05/01 00:00:00+00,2017/05/01 00:00:00+00,6.2,2017/05/01 00:00:00+00,2018,2018/02/28 00:00:00+00,Right of Way,HUMBOLDT,30,,
276,45.503749,-122.629487,276,345,67,37,31,,Chamaecyparis pisifera 'Boulevard',Boulevard cypress,1S1E12AB  7700,3401 SE Clinton St.,2019/09/16 19:15:39+00,2019/09/16 19:15:32+00,8.4,2019/09/16 19:15:45+00,2018,2018/02/28 00:00:00+00,"Private, front yard",RICHMOND,54,2019/09/16 22:25:39+00,Good condition 
277,NA,NA,277,346,99,60,51,Struck by lightning in 1960,Fagus sylvatica f. purpurea,Copper beech,1S1E12AA  12202,3839 SE Woodward St.,2017/05/01 00:00:00+00,2017/05/01 00:00:00+00,13.3,2017/05/01 00:00:00+00,2018,2018/02/28 00:00:00+00,Private,RICHMOND,54,,
278,NA,NA,278,347,95,NA,50,Behind a fence and hedge at top of driveway,Fagus sylvatica,European beech,1S1E24BA  10100,7110 SE 29th Ave.,2017/05/01 00:00:00+00,,13.1,2017/05/01 00:00:00+00,2018,2018/02/28 00:00:00+00,Private,EASTMORELAND,19,,
279,NA,NA,279,348,144,58,58,,Pseudotsuga menziesii,Douglas-fir,1S1E20DC  100,8207 SW 30th Ave.,2017/05/01 00:00:00+00,2017/05/01 00:00:00+00,15.3,2017/05/01 00:00:00+00,2018,2018/02/28 00:00:00+00,Right of Way,MULTNOMAH,43,,
280,NA,NA,280,349,121,38,39,,Pinus ponderosa,Ponderosa pine,1S1E20CB  1300,4124 SW Canby St.,2017/05/01 00:00:00+00,2017/05/01 00:00:00+00,10.2,2017/05/01 00:00:00+00,2018,2018/02/28 00:00:00+00,Right of Way,MULTNOMAH,43,,
281,NA,NA,281,350,51,NA,39,Directly east of the house,Parrotia persica,Persian ironwood,1S1E19DA  1000,4600 SW Maplewood Rd.,2017/05/01 00:00:00+00,,10.15,2017/05/01 00:00:00+00,2018,2018/02/28 00:00:00+00,Private,MAPLEWOOD,38,,
282,NA,NA,282,351,36,34,13,South of dirt driveway,Halesia monticola,Mountain silverbell,1S1E19DA  1000,4600 SW Maplewood Rd.,2017/05/01 00:00:00+00,2017/05/01 00:00:00+00,3.5,2017/05/01 00:00:00+00,2018,2018/02/28 00:00:00+00,Private,MAPLEWOOD,38,,
283,NA,NA,283,352,48,38,16,Between two temporary sheds,Acer pictum,Painted maple,1S1E19DA  1000,4600 SW Maplewood Rd.,2017/05/01 00:00:00+00,2017/05/01 00:00:00+00,4.2,2017/05/01 00:00:00+00,2018,2018/02/28 00:00:00+00,Private,MAPLEWOOD,38,,
284,45.5879,-122.75966,284,353,50,53,16,,Gymnocladus dioica,Kentucky coffeetree,1N1W12BD  8100,6635 N Baltimore Ave.,2018/06/01 00:00:00+00,2018/06/01 00:00:00+00,4.2,2018/06/01 00:00:00+00,2019,2019/03/27 00:00:00+00,Park,CATHEDRAL PARK,13,,
285,45.58296,-122.7085,285,354,55,68,55,,Umbellularia californica,Oregon myrtle,1N1E08DB  700,8235 & 8241 N Chautauqua Blvd.,2018/06/01 00:00:00+00,2018/06/01 00:00:00+00,14.3,2018/06/01 00:00:00+00,2019,2019/03/27 00:00:00+00,Private,PORTSMOUTH,51,,
286,45.59444,-122.66039,286,355,76,61,45,,Pinus densiflora,Japanese red pine,1N1E02C   300,10040 NE 6th Dr.,2018/06/01 00:00:00+00,2018/06/01 00:00:00+00,11.8,2018/06/01 00:00:00+00,2019,2019/03/27 00:00:00+00,Park,EAST COLUMBIA,18,,
287,45.57234,-122.63302,287,356,86,42,46,,Metasequoia glyptostroboides,Dawn redwood,1N1E13BD  3500,6805 NE 32nd Ave.,2018/06/15 00:00:00+00,2018/06/15 00:00:00+00,15.1,2018/06/15 00:00:00+00,2019,2019/03/27 00:00:00+00,Private,CONCORDIA,14,,
288,45.55068,-122.64176,288,357,103,70,48,,Fagus sylvatica f. purpurea,Copper beech,1N1E23DD  18600,3834 NE 23rd Ave.,2018/06/01 00:00:00+00,2018/06/01 00:00:00+00,12.5,2018/06/01 00:00:00+00,2019,2019/03/27 00:00:00+00,Private,ALAMEDA,1,,
289,45.54787,-122.6483,289,358,66,56,46,,Acer campestre,Hedge maple,1N1E26AB  3700,3424 NE 17th Ave.,2018/06/01 00:00:00+00,2018/06/01 00:00:00+00,12,2018/06/01 00:00:00+00,2019,2019/03/27 00:00:00+00,ROW,IRVINGTON,31,,
290,45.52897,-122.72963,290,359,268,60,71,,Pseudotsuga menziesii,Douglas-fir,1N1E31AC  100,5151 NW Cornell Rd.,2018/06/15 00:00:00+00,2018/06/15 00:00:00+00,18.7,2018/06/15 00:00:00+00,2019,2019/03/27 00:00:00+00,Private,FOREST PARK,21,,
291,45.50332,-122.57665,291,360,72,58,39,,Castanea sativa,Spanish Chestnut,1S2E09BB  5603,2704 SE 84th Ave.,2018/07/13 00:00:00+00,2018/07/13 00:00:00+00,10.1,2018/07/13 00:00:00+00,2019,2019/03/27 00:00:00+00,ROW,POWELLHURST-GILBERT,52,,
292,45.48796,-122.4994,292,361,115,41,122,,Populus nigra var. italica,Lombardy poplar,1S2E13    100,16160 SE Powell Blvd.,2017/07/19 00:00:00+00,2017/07/19 00:00:00+00,32,2017/07/19 00:00:00+00,2019,2019/03/27 00:00:00+00,Park,PLEASANT VALLEY,50,,
293,45.47402,-122.53543,293,362,135,70,52,,Cedrus libani ssp. atlantica,Blue Atlas cedar,1S2E23BB  900,6704 SE 122nd Ave.,2018/07/13 00:00:00+00,2018/07/13 00:00:00+00,13.5,2018/07/13 00:00:00+00,2019,2019/03/27 00:00:00+00,Park,PLEASANT VALLEY,50,,
294,45.47168,-122.67839,294,363,104,60,42,,Liquidambar styraciflua,American sweetgum,1S1E22BC  4500,7300 SW Brier Pl.,2018/06/01 00:00:00+00,2018/06/01 00:00:00+00,10.9,2018/06/01 00:00:00+00,2019,2019/03/27 00:00:00+00,ROW,SOUTH PORTLAND,59,,
295,45.47139,-122.67845,295,364,114,65,51,,Quercus palustris,Pin oak,1S1E22BC  5500,7326 SW Brier Pl.,2018/06/15 00:00:00+00,2018/06/15 00:00:00+00,13.4,2018/06/15 00:00:00+00,2019,2019/03/27 00:00:00+00,ROW,SOUTH PORTLAND,59,,
296,45.592786,-122.749692,296,365,67,43,NA,,Abies pinsapo,Spanish fir,,9008 N Charleston Ave,2019/06/07 00:00:00+00,2019/06/07 00:00:00+00,NA,2017/05/01 00:00:00+00,2020,2020/06/24 00:00:00+00,Private,ST. JOHNS,61,,
297,45.574525,-122.666154,297,366,84,69,45,,Platanus x acerifolia,London planetree,,23 NE Morgan St,2019/06/07 00:00:00+00,2019/06/07 00:00:00+00,12.2,2019/06/07 00:00:00+00,2020,2020/06/24 00:00:00+00,Private,PIEDMONT,49,,
298,45.567222,-122.674549,298,367,97,49,39,,Tilia tomentosa,Silver linden,,700 N Rosa Parks Way,2019/06/07 00:00:00+00,2019/06/07 00:00:00+00,10.7,2019/06/07 00:00:00+00,2020,2020/06/24 00:00:00+00,Parks,PIEDMONT,49,,
299,45.566571,-122.675829,299,368,81,80,49,,Cedrus deodara,Deodar cedar,,6006 N Mississippi Ave,2019/06/07 00:00:00+00,2019/06/07 00:00:00+00,13.2,2019/06/07 00:00:00+00,2020,2020/06/24 00:00:00+00,Private,PIEDMONT,49,,
300,45.548336,-122.682483,300,369,71,102,50,,Ulmus americana,American elm,,1599 N Fremont St,2019/06/07 00:00:00+00,2019/06/07 00:00:00+00,13.4,2019/06/07 00:00:00+00,2020,2020/06/24 00:00:00+00,Parks,OVERLOOK,47,,
301,45.541724,-122.65458,301,370,61,46,26,,Quercus hypoleucoides,Silverleaf oak,,2627 NE 11th Ave,2019/06/07 00:00:00+00,2019/06/07 00:00:00+00,6.9,2019/06/07 00:00:00+00,2020,2020/06/24 00:00:00+00,Right of Way,IRVINGTON,31,,
302,45.541646,-122.654587,302,371,57,49,25,,Quercus hypoleucoides,Silverleaf oak,,2627 NE 11th Ave,2019/06/07 00:00:00+00,2019/06/07 00:00:00+00,6.4,2019/06/07 00:00:00+00,2020,2020/06/24 00:00:00+00,Right of Way,IRVINGTON,31,,
303,45.547219,-122.626455,303,372,71,86,84,,Fagus sylvatica,European beech,,3310 NE 36th Ave,2019/06/07 00:00:00+00,2019/06/07 00:00:00+00,12.3,2019/06/07 00:00:00+00,2020,2020/06/24 00:00:00+00,Private,BEAUMONT-WILSHIRE,7,,
304,45.516798,-122.574995,304,373,84,64,50,,Fagus sylvatica,European beech,,810 SE 86th Ave,2019/06/07 00:00:00+00,2019/06/07 00:00:00+00,13.5,2019/06/07 00:00:00+00,2020,2020/06/24 00:00:00+00,Right of Way,MONTAVILLA,40,,
305,45.473898,-122.534961,305,374,93,60,27,,Ginkgo biloba,Ginkgo,,6704 SE 122nd Ave,2019/06/28 00:00:00+00,2019/06/28 00:00:00+00,7.7,2019/06/28 00:00:00+00,2020,2020/06/24 00:00:00+00,Parks,PLEASANT VALLEY,50,,
306,45.473955,-122.534693,306,375,35,34,31,,Crataegus x lavalleei,Lavalle hawthorn,,6704 SE 122nd,2019/06/28 00:00:00+00,2019/06/28 00:00:00+00,8.6,2019/06/28 00:00:00+00,2020,2020/06/24 00:00:00+00,Parks,PLEASANT VALLEY,50,,
307,45.474188,-122.535085,307,376,52,35,14,,Stewartia monadelpha,Orangebark stewartia,,6704 SE 122nd Ave,2019/06/28 00:00:00+00,2019/06/28 00:00:00+00,4.1,2019/06/28 00:00:00+00,2020,2020/06/24 00:00:00+00,Parks,PLEASANT VALLEY,50,,
308,45.49836,-122.676982,308,377,84,40,19,,Eucalyptus perriniana,Spinning gum,,3415 SW Water Ave,2019/06/28 00:00:00+00,2019/06/28 00:00:00+00,5.4,2019/06/28 00:00:00+00,2020,2020/06/24 00:00:00+00,Right of Way,SOUTH PORTLAND,59,,
309,NA,NA,309,379,29,21,11,,Cinnamomum japonicum,japanese cinnamon,,3223 NE 16th Ave,2022/05/25 00:00:00+00,2022/05/25 00:00:00+00,2.9,2022/05/25 00:00:00+00,2019,2022/05/25 00:00:00+00,ROW,IRVINGTON,31,,
310,NA,NA,310,378,133,62,67,,Pseudotsuga menziesii,Douglas-fir,,5518 SE 139th Ave,2022/05/25 00:00:00+00,2022/05/25 00:00:00+00,17.5,2022/05/25 00:00:00+00,2019,2022/05/25 00:00:00+00,ROW,POWELLHURST-GILBERT,52,,
311,NA,NA,311,381,164,50,60,,Abies grandis,grand fir,,7100 SW Brier Pl,2022/05/25 00:00:00+00,2022/05/25 00:00:00+00,15.8,2022/05/25 00:00:00+00,2019,2022/05/25 00:00:00+00,Private,SOUTH PORTLAND,59,,
